#BESTXYZA,USB3,0,70.0,FINESTEERING,1991,342566.000,00400000,d821,7053;SOL_COMPUTED,SINGLE,-2693875.4946,-4260734.7982,3894513.1939,4.8096,5.0900,2.3271,SOL_COMPUTED,DOPPLER_VELOCITY,-0.0632,-0.0515,0.0396,0.5749,0.6084,0.2781,"",0.150,0.000,0.000,6,6,0,0,0,06,0,03*a42bf41c
#BESTVELA,USB3,0,70.0,FINESTEERING,1991,342566.000,00400000,827b,7053;SOL_COMPUTED,DOPPLER_VELOCITY,0.150,0.000,0.0306,238.059550,0.0853,0.0*d53b0a18
#BESTXYZA,USB3,0,71.0,FINESTEERING,1991,342567.000,00400000,d821,7053;SOL_COMPUTED,SINGLE,-2693875.5064,-4260734.8591,3894513.2223,4.8092,5.0902,2.3268,SOL_COMPUTED,DOPPLER_VELOCITY,0.0338,0.0047,-0.0289,0.5748,0.6084,0.2781,"",0.150,0.000,0.000,6,6,0,0,0,06,0,03*593e4b88
#BESTVELA,USB3,0,71.0,FINESTEERING,1991,342567.000,00400000,827b,7053;SOL_COMPUTED,DOPPLER_VELOCITY,0.150,0.000,0.0277,109.507364,-0.0351,0.0*62febc64
#BESTXYZA,USB3,0,72.0,FINESTEERING,1991,342568.000,00400000,d821,7053;SOL_COMPUTED,SINGLE,-2693875.5083,-4260734.8815,3894513.2215,4.8089,5.0905,2.3267,SOL_COMPUTED,DOPPLER_VELOCITY,-0.0416,-0.0347,0.0152,0.5748,0.6084,0.2781,"",0.150,0.000,0.000,6,6,0,0,0,06,0,03*27520613
#BESTVELA,USB3,0,72.0,FINESTEERING,1991,342568.000,00400000,827b,7053;SOL_COMPUTED,DOPPLER_VELOCITY,0.150,0.000,0.0257,220.213095,0.0500,0.0*023d52fc
#BESTXYZA,USB3,0,63.0,FINESTEERING,1991,342569.000,00400000,d821,7053;SOL_COMPUTED,SINGLE,-2693875.5708,-4260734.9523,3894513.2566,4.8085,5.0907,2.3265,SOL_COMPUTED,DOPPLER_VELOCITY,-0.0329,-0.0200,0.0102,0.5747,0.6085,0.2781,"",0.150,0.000,0.000,6,6,0,0,0,06,0,03*51f3aa41
#BESTVELA,USB3,0,63.0,FINESTEERING,1991,342569.000,00400000,827b,7053;SOL_COMPUTED,DOPPLER_VELOCITY,0.150,0.000,0.0216,232.628600,0.0335,0.0*ebe666f8
#BESTXYZA,USB3,0,63.0,FINESTEERING,1991,342570.000,00400000,d821,7053;SOL_COMPUTED,SINGLE,-2693875.6049,-4260735.0118,3894513.2742,4.8081,5.0909,2.3263,SOL_COMPUTED,DOPPLER_VELOCITY,-0.0434,-0.0490,0.0271,0.5747,0.6085,0.2780,"",0.150,0.000,0.000,6,6,0,0,0,06,0,03*9cfd003c
#BESTVELA,USB3,0,63.0,FINESTEERING,1991,342570.000,00400000,827b,7053;SOL_COMPUTED,DOPPLER_VELOCITY,0.150,0.000,0.0211,209.884664,0.0676,0.0*791fbda1
#BESTXYZA,USB3,0,68.0,FINESTEERING,1991,342571.000,00400000,d821,7053;SOL_COMPUTED,SINGLE,-2693875.6291,-4260735.0492,3894513.2963,4.8077,5.0912,2.3261,SOL_COMPUTED,DOPPLER_VELOCITY,-0.0394,-0.0349,0.0148,0.5746,0.6085,0.2780,"",0.150,0.000,0.000,6,6,0,0,0,06,0,03*1a4025f4
#BESTVELA,USB3,0,68.0,FINESTEERING,1991,342571.000,00400000,827b,7053;SOL_COMPUTED,DOPPLER_VELOCITY,0.150,0.000,0.0242,217.055384,0.0490,0.0*6fae7a26
#BESTXYZA,USB3,0,68.5,FINESTEERING,1991,342572.000,00400000,d821,7053;SOL_COMPUTED,SINGLE,-2693875.6915,-4260735.0933,3894513.3257,4.8075,5.0916,2.3262,SOL_COMPUTED,DOPPLER_VELOCITY,0.0002,0.0179,0.0132,0.5746,0.6086,0.2780,"",0.150,0.000,0.000,6,6,0,0,0,06,0,03*edfdb545
#BESTVELA,USB3,0,68.5,FINESTEERING,1991,342572.000,00400000,827b,7053;SOL_COMPUTED,DOPPLER_VELOCITY,0.150,0.000,0.0219,334.607959,-0.0040,0.0*0ab37c41
#BESTXYZA,USB3,0,68.5,FINESTEERING,1991,342573.000,00000000,d821,7053;SOL_COMPUTED,SINGLE,-2693875.6669,-4260735.0929,3894513.3065,4.8067,5.0914,2.3254,SOL_COMPUTED,DOPPLER_VELOCITY,0.0637,0.0795,-0.0624,0.5745,0.6085,0.2779,"",0.150,0.000,0.000,7,6,0,0,0,06,0,03*af491985
#BESTVELA,USB3,0,68.5,FINESTEERING,1991,342573.000,00000000,827b,7053;SOL_COMPUTED,DOPPLER_VELOCITY,0.150,0.000,0.0172,41.438142,-0.1182,0.0*c0e8a3f0
#BESTXYZA,USB3,0,68.5,FINESTEERING,1991,342574.000,00000000,d821,7053;SOL_COMPUTED,SINGLE,-2693875.6529,-4260735.0830,3894513.2933,4.8065,5.0917,2.3254,SOL_COMPUTED,DOPPLER_VELOCITY,0.0341,0.0367,-0.0175,0.5745,0.6086,0.2779,"",0.150,0.000,0.000,7,6,0,0,0,06,0,03*7a803b7b
#BESTVELA,USB3,0,68.5,FINESTEERING,1991,342574.000,00000000,827b,7053;SOL_COMPUTED,DOPPLER_VELOCITY,0.150,0.000,0.0189,29.206135,-0.0496,0.0*138ce43d
#BESTXYZA,USB3,0,69.5,FINESTEERING,1991,342575.000,00000000,d821,7053;SOL_COMPUTED,SINGLE,-2693875.6972,-4260735.1354,3894513.3182,4.8060,5.0919,2.3250,SOL_COMPUTED,DOPPLER_VELOCITY,0.0054,-0.0198,0.0299,0.5744,0.6086,0.2779,"",0.150,0.000,0.000,7,6,0,0,0,06,0,03*dc0b0eea
#BESTVELA,USB3,0,69.5,FINESTEERING,1991,342575.000,00000000,827b,7053;SOL_COMPUTED,DOPPLER_VELOCITY,0.150,0.000,0.0214,44.984690,0.0293,0.0*f988e95f
#BESTXYZA,USB3,0,69.5,FINESTEERING,1991,342576.000,00000000,d821,7053;SOL_COMPUTED,SINGLE,-2693875.7450,-4260735.1869,3894513.3480,4.8057,5.0921,2.3249,SOL_COMPUTED,DOPPLER_VELOCITY,0.0067,0.0223,-0.0112,0.5744,0.6086,0.2779,"",0.150,0.000,0.000,7,6,0,0,0,06,0,03*5f32f07f
#BESTVELA,USB3,0,69.5,FINESTEERING,1991,342576.000,00000000,827b,7053;SOL_COMPUTED,DOPPLER_VELOCITY,0.150,0.000,0.0080,308.275952,-0.0245,0.0*80e16ffe
#BESTXYZA,USB3,0,69.5,FINESTEERING,1991,342577.000,00000000,d821,7053;SOL_COMPUTED,SINGLE,-2693875.7254,-4260735.1759,3894513.3402,4.8053,5.0923,2.3247,SOL_COMPUTED,DOPPLER_VELOCITY,0.0495,0.0333,-0.0265,0.5743,0.6086,0.2778,"",0.150,0.000,0.000,7,6,0,0,0,06,0,03*03ca703a
#BESTVELA,USB3,0,69.5,FINESTEERING,1991,342577.000,00000000,827b,7053;SOL_COMPUTED,DOPPLER_VELOCITY,0.150,0.000,0.0272,62.417455,-0.0593,0.0*2e36915b
#BESTXYZA,USB3,0,70.0,FINESTEERING,1991,342578.000,00000000,d821,7053;SOL_COMPUTED,SINGLE,-2693875.7231,-4260735.1702,3894513.3356,4.8048,5.0925,2.3244,SOL_COMPUTED,DOPPLER_VELOCITY,-0.0278,-0.0198,-0.0022,0.5743,0.6087,0.2778,"",0.150,0.000,0.000,7,6,0,0,0,06,0,03*339df18d
#BESTVELA,USB3,0,70.0,FINESTEERING,1991,342578.000,00000000,827b,7053;SOL_COMPUTED,DOPPLER_VELOCITY,0.150,0.000,0.0247,211.519749,0.0236,0.0*a3e1c5c7
#BESTXYZA,USB3,0,67.0,FINESTEERING,1991,342579.000,00000000,d821,7053;SOL_COMPUTED,SINGLE,-2693875.7272,-4260735.1333,3894513.3387,4.8044,5.0927,2.3241,SOL_COMPUTED,DOPPLER_VELOCITY,0.0129,0.1037,0.1200,0.5742,0.6087,0.2778,"",0.150,0.000,0.000,7,6,0,0,0,06,0,03*531b1aa1
#BESTVELA,USB3,0,67.0,FINESTEERING,1991,342579.000,00000000,827b,7053;SOL_COMPUTED,DOPPLER_VELOCITY,0.150,0.000,0.1591,343.754444,-0.0009,0.0*dba827d1
#BESTXYZA,USB3,0,67.0,FINESTEERING,1991,342580.000,00000000,d821,7053;SOL_COMPUTED,SINGLE,-2693875.6333,-4260734.7201,3894513.7513,4.8042,5.0932,2.3243,SOL_COMPUTED,DOPPLER_VELOCITY,0.0027,0.6300,0.7859,0.5742,0.6088,0.2778,"",0.150,0.000,0.000,7,6,0,0,0,06,0,03*e7ca4d0c
#BESTVELA,USB3,0,67.0,FINESTEERING,1991,342580.000,00000000,827b,7053;SOL_COMPUTED,DOPPLER_VELOCITY,0.150,0.000,1.0054,340.573464,0.0610,0.0*760a9531
#BESTXYZA,USB3,0,69.0,FINESTEERING,1991,342581.000,00000000,d821,7053;SOL_COMPUTED,SINGLE,-2693875.9074,-4260733.7200,3894514.6716,4.8035,5.0932,2.3237,SOL_COMPUTED,DOPPLER_VELOCITY,-0.7166,1.3135,1.2452,0.5741,0.6088,0.2777,"",0.150,0.000,0.000,7,6,0,0,0,06,0,03*09b44831
#BESTVELA,USB3,0,69.0,FINESTEERING,1991,342581.000,00000000,827b,7053;SOL_COMPUTED,DOPPLER_VELOCITY,0.150,0.000,1.9373,317.547137,0.1904,0.0*a8af36ed
#BESTXYZA,USB3,0,67.5,FINESTEERING,1991,342582.000,00000000,d821,7053;SOL_COMPUTED,SINGLE,-2693876.8225,-4260732.2353,3894515.6182,4.8032,5.0935,2.3239,SOL_COMPUTED,DOPPLER_VELOCITY,-1.1335,1.6348,0.7315,0.5741,0.6088,0.2778,"",0.150,0.000,0.000,8,6,0,0,0,06,0,03*7fbdff1c
#BESTVELA,USB3,0,67.5,FINESTEERING,1991,342582.000,00000000,827b,7053;SOL_COMPUTED,DOPPLER_VELOCITY,0.150,0.000,2.1133,299.913686,-0.1635,0.0*b67279c4
#BESTXYZA,USB3,0,65.0,FINESTEERING,1991,342583.000,00000000,d821,7053;SOL_COMPUTED,SINGLE,-2693878.2267,-4260730.9091,3894515.9614,4.8038,5.0947,2.3253,SOL_COMPUTED,DOPPLER_VELOCITY,-1.4084,1.0344,0.0652,0.5742,0.6089,0.2779,"",0.150,0.000,0.000,8,6,0,0,0,06,0,03*fee659d3
#BESTVELA,USB3,0,65.0,FINESTEERING,1991,342583.000,00000000,827b,7053;SOL_COMPUTED,DOPPLER_VELOCITY,0.150,0.000,1.7477,274.138394,-0.0560,0.0*247ecd70
#BESTXYZA,USB3,0,64.0,FINESTEERING,1991,342584.000,00000000,d821,7053;SOL_COMPUTED,SINGLE,-2693879.2112,-4260730.2277,3894515.8576,4.8025,5.0939,2.3234,SOL_COMPUTED,DOPPLER_VELOCITY,-0.5062,0.4023,-0.1101,0.5740,0.6088,0.2777,"",0.150,0.000,0.000,9,6,0,0,0,06,0,03*e8af7919
#BESTVELA,USB3,0,64.0,FINESTEERING,1991,342584.000,00000000,827b,7053;SOL_COMPUTED,DOPPLER_VELOCITY,0.150,0.000,0.6444,266.066714,-0.1224,0.0*33ff4c27
#BESTXYZA,USB3,0,64.0,FINESTEERING,1991,342585.000,00000000,d821,7053;SOL_COMPUTED,SINGLE,-2693879.4566,-4260730.0878,3894515.7854,4.8022,5.0944,2.3236,SOL_COMPUTED,DOPPLER_VELOCITY,-0.0811,0.0846,-0.0413,0.5740,0.6089,0.2777,"",0.150,0.000,0.000,9,6,0,0,0,06,0,03*3cc6aaea
#BESTVELA,USB3,0,64.0,FINESTEERING,1991,342585.000,00000000,827b,7053;SOL_COMPUTED,DOPPLER_VELOCITY,0.150,0.000,0.1148,262.327482,-0.0476,0.0*ab1c283d
#BESTXYZA,USB3,0,67.0,FINESTEERING,1991,342586.000,00000000,d821,7053;SOL_COMPUTED,SINGLE,-2693879.5579,-4260730.0773,3894515.7636,4.8019,5.0946,2.3235,SOL_COMPUTED,DOPPLER_VELOCITY,-0.0207,-0.0187,0.0294,0.5739,0.6089,0.2777,"",0.150,0.000,0.000,9,6,0,0,0,06,0,03*21363dc9
#BESTVELA,USB3,0,67.0,FINESTEERING,1991,342586.000,00000000,827b,7053;SOL_COMPUTED,DOPPLER_VELOCITY,0.150,0.000,0.0101,311.803747,0.0392,0.0*9322fc5e
#BESTXYZA,USB3,0,65.0,FINESTEERING,1991,342587.000,00000000,d821,7053;SOL_COMPUTED,SINGLE,-2693879.6187,-4260730.1172,3894515.7588,4.8015,5.0948,2.3232,SOL_COMPUTED,DOPPLER_VELOCITY,-0.0106,-0.0203,0.0068,0.5739,0.6089,0.2777,"",0.150,0.000,0.000,10,6,0,0,0,06,0,03*368d4f39
#BESTVELA,USB3,0,65.0,FINESTEERING,1991,342587.000,00000000,827b,7053;SOL_COMPUTED,DOPPLER_VELOCITY,0.150,0.000,0.0089,167.541396,0.0221,0.0*cbc9b48d
#BESTXYZA,USB3,0,61.0,FINESTEERING,1991,342588.000,00000000,d821,7053;SOL_COMPUTED,SINGLE,-2693879.6630,-4260730.1415,3894515.7356,4.8012,5.0951,2.3231,SOL_COMPUTED,DOPPLER_VELOCITY,-0.0445,-0.0364,0.0201,0.5738,0.6090,0.2777,"",0.150,0.000,0.000,10,6,0,0,0,06,0,03*3b01956d
#BESTVELA,USB3,0,61.0,FINESTEERING,1991,342588.000,00000000,827b,7053;SOL_COMPUTED,DOPPLER_VELOCITY,0.150,0.000,0.0253,225.803760,0.0554,0.0*373362c2
#BESTXYZA,USB3,0,61.0,FINESTEERING,1991,342589.000,00000000,d821,7053;SOL_COMPUTED,SINGLE,-2693879.7284,-4260730.1792,3894515.7313,4.8007,5.0952,2.3228,SOL_COMPUTED,DOPPLER_VELOCITY,0.0114,0.0349,-0.0197,0.5738,0.6090,0.2776,"",0.150,0.000,0.000,10,6,0,0,0,06,0,03*4164d812
#BESTVELA,USB3,0,61.0,FINESTEERING,1991,342589.000,00000000,827b,7053;SOL_COMPUTED,DOPPLER_VELOCITY,0.150,0.000,0.0110,304.713086,-0.0402,0.0*80bc01ff
#BESTXYZA,USB3,0,53.5,FINESTEERING,1991,342590.000,00000000,d821,7053;SOL_COMPUTED,SINGLE,-2693879.8427,-4260730.2710,3894515.7620,4.8003,5.0954,2.3225,SOL_COMPUTED,DOPPLER_VELOCITY,0.0735,0.0657,-0.0636,0.5737,0.6090,0.2776,"",0.150,0.000,0.000,10,6,0,0,0,06,0,03*514cc146
#BESTVELA,USB3,0,53.5,FINESTEERING,1991,342590.000,00000000,827b,7053;SOL_COMPUTED,DOPPLER_VELOCITY,0.150,0.000,0.0281,73.430119,-0.1139,0.0*80df07f4
#BESTXYZA,USB3,0,53.5,FINESTEERING,1991,342591.000,00000000,d821,7053;SOL_COMPUTED,SINGLE,-2693879.9268,-4260730.3019,3894515.7473,4.7999,5.0956,2.3223,SOL_COMPUTED,DOPPLER_VELOCITY,0.0374,0.0367,-0.0108,0.5737,0.6090,0.2776,"",0.150,0.000,0.000,10,6,0,0,0,06,0,03*268f7f5f
#BESTVELA,USB3,0,53.5,FINESTEERING,1991,342591.000,00000000,827b,7053;SOL_COMPUTED,DOPPLER_VELOCITY,0.150,0.000,0.0258,27.759335,-0.0469,0.0*095312e9
#BESTXYZA,USB3,0,60.0,FINESTEERING,1991,342592.000,00000000,d821,7053;SOL_COMPUTED,SINGLE,-2693879.7970,-4260730.4228,3894515.7393,4.7995,5.0959,2.3221,SOL_COMPUTED,DOPPLER_VELOCITY,0.4474,-0.1440,0.0081,0.5736,0.6091,0.2775,"",0.150,0.000,0.000,10,6,0,0,0,06,0,03*874fc4a0
#BESTVELA,USB3,0,60.0,FINESTEERING,1991,342592.000,00000000,827b,7053;SOL_COMPUTED,DOPPLER_VELOCITY,0.150,0.000,0.4618,80.215150,-0.0877,0.0*2bf5a09a
#BESTXYZA,USB3,0,60.0,FINESTEERING,1991,342593.000,00000000,d821,7053;SOL_COMPUTED,SINGLE,-2693879.1994,-4260730.9270,3894515.6719,4.7989,5.0958,2.3215,SOL_COMPUTED,DOPPLER_VELOCITY,0.7792,-0.7739,-0.1422,0.5736,0.6091,0.2775,"",0.150,0.000,0.000,10,6,0,0,0,06,0,03*1846adfd
#BESTVELA,USB3,0,60.0,FINESTEERING,1991,342593.000,00000000,827b,7053;SOL_COMPUTED,DOPPLER_VELOCITY,0.150,0.000,1.1028,103.542823,0.1003,0.0*ad0cc1d8
#BESTXYZA,USB3,0,60.5,FINESTEERING,1991,342594.000,00000000,d821,7053;SOL_COMPUTED,SINGLE,-2693878.2545,-4260731.6635,3894515.5472,4.7985,5.0960,2.3214,SOL_COMPUTED,DOPPLER_VELOCITY,0.7598,-0.8182,-0.0236,0.5735,0.6091,0.2775,"",0.150,0.000,0.000,10,6,0,0,0,06,0,03*788a03fe
#BESTVELA,USB3,0,60.5,FINESTEERING,1991,342594.000,00000000,827b,7053;SOL_COMPUTED,DOPPLER_VELOCITY,0.150,0.000,1.0967,100.182762,0.2109,0.0*94d28875
#BESTXYZA,USB3,0,61.0,FINESTEERING,1991,342595.000,00000000,d821,7053;SOL_COMPUTED,SINGLE,-2693877.4387,-4260732.1539,3894515.6165,4.7980,5.0961,2.3210,SOL_COMPUTED,DOPPLER_VELOCITY,0.6850,-0.2061,0.1459,0.5735,0.6091,0.2774,"",0.150,0.000,0.000,10,6,0,0,0,06,0,03*3c60c5ac
#BESTVELA,USB3,0,61.0,FINESTEERING,1991,342595.000,00000000,827b,7053;SOL_COMPUTED,DOPPLER_VELOCITY,0.150,0.000,0.7274,71.316860,-0.0619,0.0*3366afe9
#BESTXYZA,USB3,0,62.0,FINESTEERING,1991,342596.000,00000000,d821,7053;SOL_COMPUTED,SINGLE,-2693877.1956,-4260732.2771,3894515.6699,4.7977,5.0965,2.3210,SOL_COMPUTED,DOPPLER_VELOCITY,-0.0324,-0.0340,0.0390,0.5734,0.6091,0.2774,"",0.150,0.000,0.000,10,6,0,0,0,06,0,03*85b8d654
#BESTVELA,USB3,0,62.0,FINESTEERING,1991,342596.000,00000000,827b,7053;SOL_COMPUTED,DOPPLER_VELOCITY,0.150,0.000,0.0096,285.385825,0.0603,0.0*59c0eda4
#BESTXYZA,USB3,0,62.0,FINESTEERING,1991,342597.000,00000000,d821,7053;SOL_COMPUTED,SINGLE,-2693877.3304,-4260732.2837,3894515.6471,4.7973,5.0967,2.3208,SOL_COMPUTED,DOPPLER_VELOCITY,-0.2173,0.0434,-0.1147,0.5734,0.6092,0.2774,"",0.150,0.000,0.000,10,6,0,0,0,06,0,03*e9299ac1
#BESTVELA,USB3,0,62.0,FINESTEERING,1991,342597.000,00000000,827b,7053;SOL_COMPUTED,DOPPLER_VELOCITY,0.150,0.000,0.2494,236.042715,-0.0078,0.0*75ee995b
#BESTXYZA,USB3,0,62.0,FINESTEERING,1991,342598.000,00000000,d821,7053;SOL_COMPUTED,SINGLE,-2693877.9787,-4260732.1964,3894515.2497,4.7971,5.0970,2.3208,SOL_COMPUTED,DOPPLER_VELOCITY,-1.2825,-0.2246,-0.6663,0.5734,0.6092,0.2774,"",0.150,0.000,0.000,10,6,0,0,0,06,0,03*d00b5ad4
#BESTVELA,USB3,0,62.0,FINESTEERING,1991,342598.000,00000000,827b,7053;SOL_COMPUTED,DOPPLER_VELOCITY,0.150,0.000,1.4352,222.194982,0.2818,0.0*544e308d
#BESTXYZA,USB3,0,62.0,FINESTEERING,1991,342599.000,00000000,d821,7053;SOL_COMPUTED,SINGLE,-2693879.3535,-4260732.4548,3894514.0018,4.7964,5.0968,2.3199,SOL_COMPUTED,DOPPLER_VELOCITY,-1.3002,-0.7365,-1.5005,0.5733,0.6092,0.2773,"",0.150,0.000,0.000,10,6,0,0,0,06,0,03*ebc1df3f
#BESTVELA,USB3,0,62.0,FINESTEERING,1991,342599.000,00000000,827b,7053;SOL_COMPUTED,DOPPLER_VELOCITY,0.150,0.000,2.1143,199.488047,0.1186,0.0*a484659d
#BESTXYZA,USB3,0,53.5,FINESTEERING,1991,342600.000,00000000,d821,7053;SOL_COMPUTED,SINGLE,-2693880.3920,-4260733.4439,3894512.1249,4.7970,5.0970,2.3196,SOL_COMPUTED,DOPPLER_VELOCITY,-0.6841,-1.6407,-1.9858,0.5734,0.6092,0.2772,"",0.150,0.000,0.000,9,6,0,0,0,06,0,03*2f435f2b
#BESTVELA,USB3,0,53.5,FINESTEERING,1991,342600.000,00000000,827b,7053;SOL_COMPUTED,DOPPLER_VELOCITY,0.150,0.000,2.6601,173.555656,0.1640,0.0*606933ff
#BESTXYZA,USB3,0,53.5,FINESTEERING,1991,342601.000,00000000,d821,7053;SOL_COMPUTED,SINGLE,-2693880.7081,-4260735.2389,3894509.8948,4.7963,5.0973,2.3195,SOL_COMPUTED,DOPPLER_VELOCITY,0.0946,-2.0509,-2.1984,0.5733,0.6092,0.2772,"",0.150,0.000,0.000,9,6,0,0,0,06,0,03*a72152f3
#BESTVELA,USB3,0,53.5,FINESTEERING,1991,342601.000,00000000,827b,7053;SOL_COMPUTED,DOPPLER_VELOCITY,0.150,0.000,3.0079,156.985833,-0.0213,0.0*9aee4ac0
#BESTXYZA,USB3,0,59.5,FINESTEERING,1991,342602.000,00000000,d821,7053;SOL_COMPUTED,SINGLE,-2693880.4995,-4260737.4919,3894507.6560,4.7951,5.0975,2.3191,SOL_COMPUTED,DOPPLER_VELOCITY,0.0891,-1.9891,-2.5126,0.5731,0.6093,0.2772,"",0.150,0.000,0.000,9,6,0,0,0,06,0,03*4babb111
#BESTVELA,USB3,0,59.5,FINESTEERING,1991,342602.000,00000000,827b,7053;SOL_COMPUTED,DOPPLER_VELOCITY,0.150,0.000,3.1959,159.135032,-0.2531,0.0*1cad0ec5
#BESTXYZA,USB3,0,58.0,FINESTEERING,1991,342603.000,00000000,d821,7053;SOL_COMPUTED,SINGLE,-2693880.7336,-4260742.1943,3894506.6809,4.7990,5.4322,2.6593,SOL_COMPUTED,DOPPLER_VELOCITY,0.2327,-2.4839,-2.4586,0.5736,0.6493,0.3178,"",0.150,0.000,0.000,8,5,0,0,0,06,0,03*fb8cf11c
#BESTVELA,USB3,0,58.0,FINESTEERING,1991,342603.000,00000000,827b,7053;SOL_COMPUTED,DOPPLER_VELOCITY,0.150,0.000,3.5023,154.203399,0.0496,0.0*3764225b
#BESTXYZA,USB3,0,56.5,FINESTEERING,1991,342604.000,00000000,d821,7053;SOL_COMPUTED,SINGLE,-2693881.0770,-4260744.5759,3894503.8281,4.7990,5.4323,2.6591,SOL_COMPUTED,DOPPLER_VELOCITY,-0.7499,-2.4154,-3.1107,0.5736,0.6493,0.3178,"",0.150,0.000,0.000,7,5,0,0,0,06,0,03*8276fdca
#BESTVELA,USB3,0,56.5,FINESTEERING,1991,342604.000,00000000,827b,7053;SOL_COMPUTED,DOPPLER_VELOCITY,0.150,0.000,4.0090,170.568139,0.0180,0.0*a91f380f
#BESTXYZA,USB3,0,56.5,FINESTEERING,1991,342605.000,00000000,d821,7053;SOL_COMPUTED,SINGLE,-2693881.2969,-4260747.0588,3894500.8485,4.7982,5.4324,2.6586,SOL_COMPUTED,DOPPLER_VELOCITY,-0.2421,-2.6017,-2.9525,0.5735,0.6493,0.3178,"",0.150,0.000,0.000,8,5,0,0,0,06,0,03*d86823c2
#BESTVELA,USB3,0,56.5,FINESTEERING,1991,342605.000,00000000,827b,7053;SOL_COMPUTED,DOPPLER_VELOCITY,0.150,0.000,3.9426,162.497765,0.0253,0.0*83027828
#BESTXYZA,USB3,0,60.5,FINESTEERING,1991,342606.000,00000000,d821,7053;SOL_COMPUTED,SINGLE,-2693881.7320,-4260749.6440,3894497.6969,4.7975,5.4325,2.6582,SOL_COMPUTED,DOPPLER_VELOCITY,-0.3888,-2.5472,-3.1754,0.5734,0.6493,0.3177,"",0.150,0.000,0.000,8,5,0,0,0,06,0,03*bd64e9c2
#BESTVELA,USB3,0,60.5,FINESTEERING,1991,342606.000,00000000,827b,7053;SOL_COMPUTED,DOPPLER_VELOCITY,0.150,0.000,4.0884,165.369844,-0.0861,0.0*f06bc518
#BESTXYZA,USB3,0,61.0,FINESTEERING,1991,342607.000,00000000,d821,7053;SOL_COMPUTED,SINGLE,-2693881.8690,-4260752.0107,3894494.4579,4.6572,5.3508,2.6579,SOL_COMPUTED,DOPPLER_VELOCITY,-0.4764,-2.5878,-3.3792,0.5566,0.6395,0.3177,"",0.150,0.000,0.000,8,5,0,0,0,06,0,03*4a96951a
#BESTVELA,USB3,0,61.0,FINESTEERING,1991,342607.000,00000000,827b,7053;SOL_COMPUTED,DOPPLER_VELOCITY,0.150,0.000,4.2803,166.760674,-0.1472,0.0*de0bbc52
#BESTXYZA,USB3,0,60.0,FINESTEERING,1991,342608.000,00000000,d821,7053;SOL_COMPUTED,SINGLE,-2693880.2556,-4260751.2185,3894490.0689,3.6257,2.6202,2.2822,SOL_COMPUTED,DOPPLER_VELOCITY,-0.6200,-2.8330,-3.3511,0.4334,0.3132,0.2728,"",0.150,0.000,0.000,9,6,0,0,0,06,0,03*1392e381
#BESTVELA,USB3,0,60.0,FINESTEERING,1991,342608.000,00000000,827b,7053;SOL_COMPUTED,DOPPLER_VELOCITY,0.150,0.000,4.4307,167.090138,0.0942,0.0*18846acd
#BESTXYZA,USB3,0,53.5,FINESTEERING,1991,342609.000,00000000,d821,7053;SOL_COMPUTED,SINGLE,-2693881.4138,-4260753.4297,3894485.8903,3.5611,2.3928,1.9726,SOL_COMPUTED,DOPPLER_VELOCITY,-0.4386,-2.7592,-3.4449,0.4256,0.2860,0.2358,"",0.150,0.000,0.000,9,7,0,0,0,06,0,03*04b0c7e0
#BESTVELA,USB3,0,53.5,FINESTEERING,1991,342609.000,00000000,827b,7053;SOL_COMPUTED,DOPPLER_VELOCITY,0.150,0.000,4.4345,165.587046,-0.0891,0.0*f19f6870
#BESTXYZA,USB3,0,53.5,FINESTEERING,1991,342610.000,00000000,d821,7053;SOL_COMPUTED,SINGLE,-2693881.9480,-4260756.1551,3894482.4443,3.5604,2.3905,1.9702,SOL_COMPUTED,DOPPLER_VELOCITY,-0.4922,-2.8517,-3.5479,0.4256,0.2857,0.2355,"",0.150,0.000,0.000,10,7,0,0,0,06,0,03*17a76f83
#BESTVELA,USB3,0,53.5,FINESTEERING,1991,342610.000,00000000,827b,7053;SOL_COMPUTED,DOPPLER_VELOCITY,0.150,0.000,4.5780,165.994389,-0.0680,0.0*664c37cf
#BESTXYZA,USB3,0,56.5,FINESTEERING,1991,342611.000,00000000,d821,7053;SOL_COMPUTED,SINGLE,-2693880.4402,-4260758.1299,3894475.4681,3.8507,2.5562,2.9193,SOL_COMPUTED,DOPPLER_VELOCITY,-0.5213,-3.6037,-4.3559,0.4602,0.3055,0.3489,"",0.150,0.000,0.000,9,6,0,0,0,06,0,03*835d45fc
#BESTVELA,USB3,0,56.5,FINESTEERING,1991,342611.000,00000000,827b,7053;SOL_COMPUTED,DOPPLER_VELOCITY,0.150,0.000,5.6771,164.834020,-0.0500,0.0*2dc10f9a
#BESTXYZA,USB3,0,56.5,FINESTEERING,1991,342612.000,00000000,d821,7053;SOL_COMPUTED,SINGLE,-2693881.1007,-4260762.0736,3894470.7264,3.8503,2.5544,2.9176,SOL_COMPUTED,DOPPLER_VELOCITY,-0.6002,-4.0809,-4.8645,0.4602,0.3053,0.3487,"",0.150,0.000,0.000,9,6,0,0,0,06,0,03*c5eb6140
#BESTVELA,USB3,0,56.5,FINESTEERING,1991,342612.000,00000000,827b,7053;SOL_COMPUTED,DOPPLER_VELOCITY,0.150,0.000,6.3779,164.787565,-0.0107,0.0*f425c64b
#BESTXYZA,USB3,0,51.5,FINESTEERING,1991,342613.000,00000000,d821,7053;SOL_COMPUTED,SINGLE,-2693881.7702,-4260765.9635,3894465.8592,3.8506,2.5543,2.9162,SOL_COMPUTED,DOPPLER_VELOCITY,-0.4765,-3.6264,-4.6939,0.4602,0.3053,0.3486,"",0.150,0.000,0.000,9,6,0,0,0,06,0,03*f8995718
#BESTVELA,USB3,0,51.5,FINESTEERING,1991,342613.000,00000000,827b,7053;SOL_COMPUTED,DOPPLER_VELOCITY,0.150,0.000,5.9449,165.034266,-0.2614,0.0*d08fdbd5
#BESTXYZA,USB3,0,51.5,FINESTEERING,1991,342614.000,00000000,d821,7053;SOL_COMPUTED,SINGLE,-2693882.3777,-4260769.4846,3894461.0963,3.8486,2.4643,2.1561,SOL_COMPUTED,DOPPLER_VELOCITY,-0.4610,-3.4499,-4.1741,0.4600,0.2945,0.2577,"",0.150,0.000,0.000,9,7,0,0,0,06,0,03*56a0fb27
#BESTVELA,USB3,0,51.5,FINESTEERING,1991,342614.000,00000000,827b,7053;SOL_COMPUTED,DOPPLER_VELOCITY,0.150,0.000,5.4344,164.481794,-0.0665,0.0*49bcee39
#BESTXYZA,USB3,0,57.5,FINESTEERING,1991,342615.000,00000000,d821,7053;SOL_COMPUTED,SINGLE,-2693882.3843,-4260773.4192,3894457.7603,3.8660,2.6213,2.3044,SOL_COMPUTED,DOPPLER_VELOCITY,0.0993,-3.0915,-3.5025,0.4621,0.3133,0.2754,"",0.150,0.000,0.000,8,6,0,0,0,06,0,03*72d5ebb9
#BESTVELA,USB3,0,57.5,FINESTEERING,1991,342615.000,00000000,827b,7053;SOL_COMPUTED,DOPPLER_VELOCITY,0.150,0.000,4.6709,158.181873,-0.1296,0.0*e7111814
#BESTXYZA,USB3,0,57.5,FINESTEERING,1991,342616.000,00000000,d821,7053;SOL_COMPUTED,SINGLE,-2693881.8577,-4260776.3318,3894454.8117,3.8658,2.6213,2.3046,SOL_COMPUTED,DOPPLER_VELOCITY,1.0631,-2.8214,-2.3980,0.4621,0.3133,0.2755,"",0.150,0.000,0.000,9,6,0,0,0,06,0,03*49ab19ea
#BESTVELA,USB3,0,57.5,FINESTEERING,1991,342616.000,00000000,827b,7053;SOL_COMPUTED,DOPPLER_VELOCITY,0.150,0.000,3.8522,141.342235,-0.0383,0.0*b7ac5122
#BESTXYZA,USB3,0,57.5,FINESTEERING,1991,342617.000,00000000,d821,7053;SOL_COMPUTED,SINGLE,-2693880.2149,-4260779.0574,3894452.9118,3.8658,2.6218,2.3055,SOL_COMPUTED,DOPPLER_VELOCITY,2.2173,-2.3703,-1.4449,0.4620,0.3134,0.2756,"",0.150,0.000,0.000,9,6,0,0,0,06,0,03*910613b7
#BESTVELA,USB3,0,57.5,FINESTEERING,1991,342617.000,00000000,827b,7053;SOL_COMPUTED,DOPPLER_VELOCITY,0.150,0.000,3.5446,117.615250,-0.2409,0.0*60041a74
#BESTXYZA,USB3,0,53.0,FINESTEERING,1991,342618.000,00000000,d821,7053;SOL_COMPUTED,SINGLE,-2693877.0555,-4260781.3251,3894451.8833,3.8345,2.6219,2.2860,SOL_COMPUTED,DOPPLER_VELOCITY,3.0130,-1.7779,-0.0306,0.4583,0.3134,0.2732,"",0.150,0.000,0.000,10,6,0,0,0,06,0,03*c6c3d7aa
#BESTVELA,USB3,0,53.0,FINESTEERING,1991,342618.000,00000000,827b,7053;SOL_COMPUTED,DOPPLER_VELOCITY,0.150,0.000,3.4971,89.314675,-0.1035,0.0*dfb09a74
#BESTXYZA,USB3,0,53.0,FINESTEERING,1991,342619.000,00000000,d821,7053;SOL_COMPUTED,SINGLE,-2693874.3001,-4260783.9029,3894452.4858,5.3759,5.4408,2.7855,SOL_COMPUTED,DOPPLER_VELOCITY,3.7904,-1.9555,0.8570,0.6425,0.6503,0.3329,"",0.150,0.000,0.000,9,5,0,0,0,06,0,03*ec3f7e0d
#BESTVELA,USB3,0,53.0,FINESTEERING,1991,342619.000,00000000,827b,7053;SOL_COMPUTED,DOPPLER_VELOCITY,0.150,0.000,4.3441,77.971102,0.2319,0.0*afa9934a
#BESTXYZA,USB3,0,58.0,FINESTEERING,1991,342620.000,00000000,d821,7053;SOL_COMPUTED,SINGLE,-2693873.2139,-4260786.5978,3894454.5648,5.5604,5.9775,3.8540,SOL_COMPUTED,DOPPLER_VELOCITY,4.6643,-2.1972,0.9210,0.6646,0.7144,0.4606,"",0.150,0.000,0.000,8,5,0,0,0,02,0,01*dc28160e
#BESTVELA,USB3,0,58.0,FINESTEERING,1991,342620.000,00000000,827b,7053;SOL_COMPUTED,DOPPLER_VELOCITY,0.150,0.000,5.2371,77.683940,0.0638,0.0*014b1b4e
#BESTXYZA,USB3,0,55.5,FINESTEERING,1991,342621.000,00000000,d821,7053;SOL_COMPUTED,SINGLE,-2693865.2577,-4260787.8859,3894454.5696,5.5148,5.9539,3.8683,SOL_COMPUTED,DOPPLER_VELOCITY,5.5028,-2.9132,1.3454,0.6591,0.7116,0.4624,"",0.150,0.000,0.000,7,5,0,0,0,06,0,03*a16cf841
#BESTVELA,USB3,0,55.5,FINESTEERING,1991,342621.000,00000000,827b,7053;SOL_COMPUTED,DOPPLER_VELOCITY,0.150,0.000,6.3542,77.681300,0.4484,0.0*7256f0e0
#BESTXYZA,USB3,0,55.5,FINESTEERING,1991,342622.000,00000000,d821,7053;SOL_COMPUTED,SINGLE,-2693859.2389,-4260790.4488,3894455.8859,5.5149,5.9546,3.8681,SOL_COMPUTED,DOPPLER_VELOCITY,6.4568,-2.7043,1.5546,0.6592,0.7117,0.4623,"",0.150,0.000,0.000,8,5,0,0,0,06,0,03*b933c622
#BESTVELA,USB3,0,55.5,FINESTEERING,1991,342622.000,00000000,827b,7053;SOL_COMPUTED,DOPPLER_VELOCITY,0.150,0.000,7.1707,74.284989,0.0350,0.0*4cab552e
#BESTXYZA,USB3,0,55.5,FINESTEERING,1991,342623.000,00000000,d821,7053;SOL_COMPUTED,SINGLE,-2693852.6667,-4260793.2469,3894457.4293,5.5152,5.9555,3.8685,SOL_COMPUTED,DOPPLER_VELOCITY,6.5612,-2.9185,1.5713,0.6592,0.7118,0.4624,"",0.150,0.000,0.000,8,5,0,0,0,06,0,03*ddbc82a3
#BESTVELA,USB3,0,55.5,FINESTEERING,1991,342623.000,00000000,827b,7053;SOL_COMPUTED,DOPPLER_VELOCITY,0.150,0.000,7.3495,75.190984,0.1441,0.0*94813636
#BESTXYZA,USB3,0,54.0,FINESTEERING,1991,342624.000,00000000,d821,7053;SOL_COMPUTED,SINGLE,-2693846.0929,-4260795.9198,3894459.0117,5.5156,5.9566,3.8691,SOL_COMPUTED,DOPPLER_VELOCITY,6.1734,-2.7451,1.4947,0.6592,0.7120,0.4624,"",0.150,0.000,0.000,9,5,0,0,0,06,0,03*14ff0242
#BESTVELA,USB3,0,54.0,FINESTEERING,1991,342624.000,00000000,827b,7053;SOL_COMPUTED,DOPPLER_VELOCITY,0.150,0.000,6.9181,75.083651,0.1450,0.0*3edbb0af
#BESTXYZA,USB3,0,54.0,FINESTEERING,1991,342625.000,00000000,d821,7053;SOL_COMPUTED,SINGLE,-2693840.3557,-4260798.2301,3894460.3756,5.5160,5.9582,3.8700,SOL_COMPUTED,DOPPLER_VELOCITY,5.1953,-2.0800,1.1185,0.6593,0.7121,0.4625,"",0.150,0.000,0.000,9,5,0,0,0,06,0,03*884ff34a
#BESTVELA,USB3,0,54.0,FINESTEERING,1991,342625.000,00000000,827b,7053;SOL_COMPUTED,DOPPLER_VELOCITY,0.150,0.000,5.7057,74.673827,-0.1171,0.0*57f8fa66
#BESTXYZA,USB3,0,54.0,FINESTEERING,1991,342626.000,00000000,d821,7053;SOL_COMPUTED,SINGLE,-2693835.3383,-4260800.2565,3894461.7488,5.5164,5.9598,3.8709,SOL_COMPUTED,DOPPLER_VELOCITY,4.9386,-1.8780,1.5655,0.6593,0.7123,0.4627,"",0.150,0.000,0.000,8,5,0,0,0,06,0,03*646c0c26
#BESTVELA,USB3,0,54.0,FINESTEERING,1991,342626.000,00000000,827b,7053;SOL_COMPUTED,DOPPLER_VELOCITY,0.150,0.000,5.5091,70.030109,0.1309,0.0*1b636878
#BESTXYZA,USB3,0,56.5,FINESTEERING,1991,342627.000,00000000,d821,7053;SOL_COMPUTED,SINGLE,-2693830.3360,-4260802.0009,3894463.3320,5.5168,5.9614,3.8719,SOL_COMPUTED,DOPPLER_VELOCITY,5.2255,-1.8160,1.5968,0.6594,0.7125,0.4628,"",0.150,0.000,0.000,8,5,0,0,0,06,0,03*e86e3471
#BESTVELA,USB3,0,56.5,FINESTEERING,1991,342627.000,00000000,827b,7053;SOL_COMPUTED,DOPPLER_VELOCITY,0.150,0.000,5.7579,69.329322,-0.0123,0.0*502292f7
#BESTXYZA,USB3,0,56.5,FINESTEERING,1991,342628.000,00000000,d821,7053;SOL_COMPUTED,SINGLE,-2693825.0390,-4260804.0922,3894464.7827,5.5172,5.9629,3.8729,SOL_COMPUTED,DOPPLER_VELOCITY,5.7716,-1.8520,1.1170,0.6594,0.7127,0.4629,"",0.150,0.000,0.000,8,5,0,0,0,06,0,03*2ab0282c
#BESTVELA,USB3,0,56.5,FINESTEERING,1991,342628.000,00000000,827b,7053;SOL_COMPUTED,DOPPLER_VELOCITY,0.150,0.000,6.1421,72.819466,-0.5132,0.0*b2b34d3c
#BESTXYZA,USB3,0,60.0,FINESTEERING,1991,342629.000,00000000,d821,7053;SOL_COMPUTED,SINGLE,-2693819.7454,-4260806.6669,3894465.7339,5.5176,5.9646,3.8738,SOL_COMPUTED,DOPPLER_VELOCITY,5.1801,-2.4333,0.6317,0.6595,0.7129,0.4630,"",0.150,0.000,0.000,9,5,0,0,0,06,0,03*6f89817c
#BESTVELA,USB3,0,60.0,FINESTEERING,1991,342629.000,00000000,827b,7053;SOL_COMPUTED,DOPPLER_VELOCITY,0.150,0.000,5.7552,80.645015,-0.1738,0.0*4b288865
#BESTXYZA,USB3,0,58.0,FINESTEERING,1991,342630.000,00000000,d821,7053;SOL_COMPUTED,SINGLE,-2693815.4260,-4260808.9474,3894466.2576,5.5180,5.9662,3.8748,SOL_COMPUTED,DOPPLER_VELOCITY,3.6344,-1.8458,0.5257,0.6595,0.7131,0.4631,"",0.150,0.000,0.000,9,5,0,0,0,06,0,03*e11eaa5b
#BESTVELA,USB3,0,58.0,FINESTEERING,1991,342630.000,00000000,827b,7053;SOL_COMPUTED,DOPPLER_VELOCITY,0.150,0.000,4.1100,80.906142,0.0211,0.0*5fa0092a
#BESTXYZA,USB3,0,57.0,FINESTEERING,1991,342631.000,00000000,d821,7053;SOL_COMPUTED,SINGLE,-2693812.8008,-4260810.2585,3894466.5321,5.5184,5.9678,3.8758,SOL_COMPUTED,DOPPLER_VELOCITY,1.5289,-1.1031,0.2245,0.6596,0.7133,0.4632,"",0.150,0.000,0.000,9,5,0,0,0,06,0,03*f9dca96b
#BESTVELA,USB3,0,57.0,FINESTEERING,1991,342631.000,00000000,827b,7053;SOL_COMPUTED,DOPPLER_VELOCITY,0.150,0.000,1.8848,86.763115,0.2289,0.0*36ffa2ba
#BESTXYZA,USB3,0,57.0,FINESTEERING,1991,342632.000,00000000,d821,7053;SOL_COMPUTED,SINGLE,-2693811.6692,-4260810.8759,3894466.6428,5.5188,5.9694,3.8768,SOL_COMPUTED,DOPPLER_VELOCITY,0.6277,-0.5350,0.0880,0.6596,0.7135,0.4634,"",0.150,0.000,0.000,9,5,0,0,0,06,0,03*d0c5da59
#BESTVELA,USB3,0,57.0,FINESTEERING,1991,342632.000,00000000,827b,7053;SOL_COMPUTED,DOPPLER_VELOCITY,0.150,0.000,0.8165,90.154465,0.1462,0.0*0c5a7f1d
#BESTXYZA,USB3,0,58.5,FINESTEERING,1991,342633.000,00000000,d821,7053;SOL_COMPUTED,SINGLE,-2693811.0649,-4260811.2353,3894466.6465,5.5192,5.9709,3.8777,SOL_COMPUTED,DOPPLER_VELOCITY,0.4827,-0.3718,0.0133,0.6597,0.7137,0.4635,"",0.150,0.000,0.000,9,5,0,0,0,06,0,03*07e1453d
#BESTVELA,USB3,0,58.5,FINESTEERING,1991,342633.000,00000000,827b,7053;SOL_COMPUTED,DOPPLER_VELOCITY,0.150,0.000,0.6071,92.268989,0.0526,0.0*94686e18
#BESTXYZA,USB3,0,61.5,FINESTEERING,1991,342634.000,00000000,d821,7053;SOL_COMPUTED,SINGLE,-2693810.2935,-4260811.8751,3894466.6455,5.5196,5.9725,3.8787,SOL_COMPUTED,DOPPLER_VELOCITY,1.0084,-0.8226,0.0321,0.6597,0.7138,0.4636,"",0.150,0.000,0.000,8,5,0,0,0,06,0,03*6156cb30
#BESTVELA,USB3,0,61.5,FINESTEERING,1991,342634.000,00000000,827b,7053;SOL_COMPUTED,DOPPLER_VELOCITY,0.150,0.000,1.2939,93.129739,0.1431,0.0*58ddb8af
#BESTXYZA,USB3,0,63.0,FINESTEERING,1991,342635.000,00000000,d821,7053;SOL_COMPUTED,SINGLE,-2693808.7074,-4260812.8502,3894466.7809,5.5200,5.9741,3.8797,SOL_COMPUTED,DOPPLER_VELOCITY,1.8580,-1.1386,0.4840,0.6598,0.7140,0.4637,"",0.150,0.000,0.000,8,5,0,0,0,06,0,03*7aa80390
#BESTVELA,USB3,0,63.0,FINESTEERING,1991,342635.000,00000000,827b,7053;SOL_COMPUTED,DOPPLER_VELOCITY,0.150,0.000,2.2154,79.576661,0.2730,0.0*660fe356
#BESTXYZA,USB3,0,56.5,FINESTEERING,1991,342636.000,00000000,d821,7053;SOL_COMPUTED,SINGLE,-2693806.3146,-4260813.5667,3894467.7315,5.5204,5.9757,3.8806,SOL_COMPUTED,DOPPLER_VELOCITY,2.8762,-0.3354,1.7445,0.6598,0.7142,0.4638,"",0.150,0.000,0.000,8,5,0,0,0,06,0,03*4b2236fd
#BESTVELA,USB3,0,56.5,FINESTEERING,1991,342636.000,00000000,827b,7053;SOL_COMPUTED,DOPPLER_VELOCITY,0.150,0.000,3.3796,50.567959,0.0815,0.0*d663288d
#BESTXYZA,USB3,0,56.5,FINESTEERING,1991,342637.000,00000000,d821,7053;SOL_COMPUTED,SINGLE,-2693803.5923,-4260813.0728,3894470.0477,5.5208,5.9772,3.8816,SOL_COMPUTED,DOPPLER_VELOCITY,2.3802,1.1917,3.1508,0.6599,0.7144,0.4639,"",0.150,0.000,0.000,8,5,0,0,0,06,0,03*f8051230
#BESTVELA,USB3,0,56.5,FINESTEERING,1991,342637.000,00000000,827b,7053;SOL_COMPUTED,DOPPLER_VELOCITY,0.150,0.000,4.1225,19.483493,0.1353,0.0*f710eeb3
#BESTXYZA,USB3,0,56.5,FINESTEERING,1991,342638.000,00000000,d821,7053;SOL_COMPUTED,SINGLE,-2693802.5104,-4260812.1569,3894474.4122,5.1985,5.1764,2.5242,SOL_COMPUTED,DOPPLER_VELOCITY,1.0053,2.4018,3.8884,0.6213,0.6187,0.3017,"",0.150,0.000,0.000,7,6,0,0,0,06,0,03*95a17d19
#BESTVELA,USB3,0,56.5,FINESTEERING,1991,342638.000,00000000,827b,7053;SOL_COMPUTED,DOPPLER_VELOCITY,0.150,0.000,4.6657,354.665282,0.3608,0.0*581ebf6f
#BESTXYZA,USB3,0,58.5,FINESTEERING,1991,342639.000,00000000,d821,7053;SOL_COMPUTED,SINGLE,-2693801.0844,-4260808.1311,3894477.3706,5.5216,5.9804,3.8835,SOL_COMPUTED,DOPPLER_VELOCITY,0.7086,3.4921,4.4843,0.6600,0.7148,0.4642,"",0.150,0.000,0.000,7,5,0,0,0,06,0,03*900f7a2d
#BESTVELA,USB3,0,58.5,FINESTEERING,1991,342639.000,00000000,827b,7053;SOL_COMPUTED,DOPPLER_VELOCITY,0.150,0.000,5.7263,347.214266,0.1244,0.0*234beef2
#BESTXYZA,USB3,0,59.0,FINESTEERING,1991,342640.000,00000000,d821,7053;SOL_COMPUTED,SINGLE,-2693803.3366,-4260805.5573,3894483.1907,3.8864,2.7997,2.3082,SOL_COMPUTED,DOPPLER_VELOCITY,0.3889,3.5225,4.6280,0.4645,0.3346,0.2759,"",0.150,0.000,0.000,8,7,0,0,0,02,0,01*7adb4fc8
#BESTVELA,USB3,0,59.0,FINESTEERING,1991,342640.000,00000000,827b,7053;SOL_COMPUTED,DOPPLER_VELOCITY,0.150,0.000,5.8198,344.516239,0.3272,0.0*bfead430
#BESTXYZA,USB3,0,59.0,FINESTEERING,1991,342641.000,00000000,d821,7053;SOL_COMPUTED,SINGLE,-2693801.0546,-4260799.4273,3894487.5028,3.8841,2.7950,2.3075,SOL_COMPUTED,DOPPLER_VELOCITY,0.7235,4.5186,5.4742,0.4642,0.3341,0.2758,"",0.150,0.000,0.000,8,7,0,0,0,02,0,01*f841e1ae
#BESTVELA,USB3,0,59.0,FINESTEERING,1991,342641.000,00000000,827b,7053;SOL_COMPUTED,DOPPLER_VELOCITY,0.150,0.000,7.1349,345.360657,0.0409,0.0*21cb04bd
#BESTXYZA,USB3,0,57.5,FINESTEERING,1991,342642.000,00000000,d821,7053;SOL_COMPUTED,SINGLE,-2693800.7774,-4260794.9679,3894493.4011,3.8778,2.8672,3.0368,SOL_COMPUTED,DOPPLER_VELOCITY,0.9952,5.3382,6.6615,0.4635,0.3427,0.3630,"",0.150,0.000,0.000,7,6,0,0,0,02,0,01*42fd0076
#BESTVELA,USB3,0,57.5,FINESTEERING,1991,342642.000,00000000,827b,7053;SOL_COMPUTED,DOPPLER_VELOCITY,0.150,0.000,8.5936,346.462798,0.1084,0.0*21792811
#BESTXYZA,USB3,0,55.0,FINESTEERING,1991,342643.000,00000000,d821,7053;SOL_COMPUTED,SINGLE,-2693798.2363,-4260789.3726,3894500.1920,5.5232,5.9868,3.8875,SOL_COMPUTED,DOPPLER_VELOCITY,1.0124,6.3836,7.9059,0.6602,0.7156,0.4646,"",0.150,0.000,0.000,6,5,0,0,0,06,0,03*06375a45
#BESTVELA,USB3,0,55.0,FINESTEERING,1991,342643.000,00000000,827b,7053;SOL_COMPUTED,DOPPLER_VELOCITY,0.150,0.000,10.2103,345.504490,0.1677,0.0*000d762a
#BESTXYZA,USB3,0,55.0,FINESTEERING,1991,342644.000,00000000,d821,7053;SOL_COMPUTED,SINGLE,-2693797.1741,-4260782.8781,3894508.0225,5.5237,5.9886,3.8885,SOL_COMPUTED,DOPPLER_VELOCITY,0.9677,6.3241,7.8407,0.6602,0.7158,0.4648,"",0.150,0.000,0.000,8,5,0,0,0,06,0,03*32fa59f6
#BESTVELA,USB3,0,55.0,FINESTEERING,1991,342644.000,00000000,827b,7053;SOL_COMPUTED,DOPPLER_VELOCITY,0.150,0.000,10.1179,345.334151,0.1862,0.0*062c286c
#BESTXYZA,USB3,0,52.5,FINESTEERING,1991,342645.000,00000000,d821,7053;SOL_COMPUTED,SINGLE,-2693798.6770,-4260777.4647,3894517.4757,3.8773,2.7899,2.3839,SOL_COMPUTED,DOPPLER_VELOCITY,1.1665,6.5603,7.7790,0.4634,0.3335,0.2849,"",0.150,0.000,0.000,9,7,0,0,0,02,0,01*a52da343
#BESTVELA,USB3,0,52.5,FINESTEERING,1991,342645.000,00000000,827b,7053;SOL_COMPUTED,DOPPLER_VELOCITY,0.150,0.000,10.2422,345.757131,-0.0931,0.0*7be4eed5
#BESTXYZA,USB3,0,52.5,FINESTEERING,1991,342646.000,00000000,d821,7053;SOL_COMPUTED,SINGLE,-2693794.9892,-4260769.7711,3894523.8199,5.5244,5.9917,3.8904,SOL_COMPUTED,DOPPLER_VELOCITY,1.0950,6.6503,8.1339,0.6603,0.7161,0.4650,"",0.150,0.000,0.000,8,5,0,0,0,06,0,03*5dd96275
#BESTVELA,USB3,0,52.5,FINESTEERING,1991,342646.000,00000000,827b,7053;SOL_COMPUTED,DOPPLER_VELOCITY,0.150,0.000,10.5630,345.591834,0.0949,0.0*896c3601
#BESTXYZA,USB3,0,58.0,FINESTEERING,1991,342647.000,00000000,d821,7053;SOL_COMPUTED,SINGLE,-2693793.8693,-4260763.1384,3894531.8216,5.5248,5.9933,3.8914,SOL_COMPUTED,DOPPLER_VELOCITY,1.2371,6.6218,7.8052,0.6603,0.7163,0.4651,"",0.150,0.000,0.000,9,5,0,0,0,06,0,03*471dc173
#BESTVELA,USB3,0,58.0,FINESTEERING,1991,342647.000,00000000,827b,7053;SOL_COMPUTED,DOPPLER_VELOCITY,0.150,0.000,10.3091,346.005405,-0.1479,0.0*7273ccef
#BESTXYZA,USB3,0,58.0,FINESTEERING,1991,342648.000,00000000,d821,7053;SOL_COMPUTED,SINGLE,-2693794.1329,-4260756.1566,3894539.6686,3.8696,2.8512,3.0355,SOL_COMPUTED,DOPPLER_VELOCITY,1.1923,5.9961,7.1093,0.4625,0.3408,0.3628,"",0.150,0.000,0.000,8,6,0,0,0,02,0,01*ac906f89
#BESTVELA,USB3,0,58.0,FINESTEERING,1991,342648.000,00000000,827b,7053;SOL_COMPUTED,DOPPLER_VELOCITY,0.150,0.000,9.3754,346.450543,-0.1387,0.0*f69041a8
#BESTXYZA,USB3,0,59.0,FINESTEERING,1991,342649.000,00000000,d821,7053;SOL_COMPUTED,SINGLE,-2693791.7864,-4260751.4521,3894546.0718,5.5256,5.9964,3.8933,SOL_COMPUTED,DOPPLER_VELOCITY,0.7609,4.8607,6.1423,0.6604,0.7167,0.4653,"",0.150,0.000,0.000,8,5,0,0,0,06,0,03*f99bcf72
#BESTVELA,USB3,0,59.0,FINESTEERING,1991,342649.000,00000000,827b,7053;SOL_COMPUTED,DOPPLER_VELOCITY,0.150,0.000,7.8670,345.614866,0.2071,0.0*7e2f08f7
#BESTXYZA,USB3,0,54.5,FINESTEERING,1991,342650.000,00000000,d821,7053;SOL_COMPUTED,SINGLE,-2693790.9843,-4260746.9222,3894551.5467,5.5260,5.9980,3.8943,SOL_COMPUTED,DOPPLER_VELOCITY,0.5605,3.7574,4.8405,0.6605,0.7169,0.4655,"",0.150,0.000,0.000,8,5,0,0,0,06,0,03*4167415f
#BESTVELA,USB3,0,54.5,FINESTEERING,1991,342650.000,00000000,827b,7053;SOL_COMPUTED,DOPPLER_VELOCITY,0.150,0.000,6.1490,345.552028,0.2285,0.0*4b3400b8
#BESTXYZA,USB3,0,54.5,FINESTEERING,1991,342651.000,00000000,d821,7053;SOL_COMPUTED,SINGLE,-2693790.4095,-4260743.5782,3894555.6138,5.5265,5.9997,3.8953,SOL_COMPUTED,DOPPLER_VELOCITY,0.3178,2.6783,3.7233,0.6605,0.7171,0.4656,"",0.150,0.000,0.000,8,5,0,0,0,06,0,03*dd164d65
#BESTVELA,USB3,0,54.5,FINESTEERING,1991,342651.000,00000000,827b,7053;SOL_COMPUTED,DOPPLER_VELOCITY,0.150,0.000,4.5830,345.304250,0.3649,0.0*3778471d
#BESTXYZA,USB3,0,55.5,FINESTEERING,1991,342652.000,00000000,d821,7053;SOL_COMPUTED,SINGLE,-2693792.6506,-4260742.3029,3894560.5741,5.3621,5.4507,2.8248,SOL_COMPUTED,DOPPLER_VELOCITY,1.0980,2.6939,3.2152,0.6409,0.6515,0.3376,"",0.150,0.000,0.000,8,6,0,0,0,02,0,01*67531ca7
#BESTVELA,USB3,0,55.5,FINESTEERING,1991,342652.000,00000000,827b,7053;SOL_COMPUTED,DOPPLER_VELOCITY,0.150,0.000,4.3264,353.209208,-0.2865,0.0*a6017460
#BESTXYZA,USB3,0,63.5,FINESTEERING,1991,342653.000,00000000,d821,7053;SOL_COMPUTED,SINGLE,-2693791.9189,-4260740.3562,3894563.1949,3.9583,2.9652,2.3701,SOL_COMPUTED,DOPPLER_VELOCITY,0.5652,1.0560,2.1692,0.4731,0.3544,0.2833,"",0.150,0.000,0.000,9,7,0,0,0,02,0,01*cf8e7086
#BESTVELA,USB3,0,63.5,FINESTEERING,1991,342653.000,00000000,827b,7053;SOL_COMPUTED,DOPPLER_VELOCITY,0.150,0.000,2.4472,357.971100,0.3888,0.0*8238eb14
#BESTXYZA,USB3,0,58.0,FINESTEERING,1991,342654.000,00000000,d821,7053;SOL_COMPUTED,SINGLE,-2693788.2189,-4260737.5511,3894563.1706,5.5188,5.9513,3.8509,SOL_COMPUTED,DOPPLER_VELOCITY,0.7142,1.1327,1.3119,0.6596,0.7113,0.4603,"",0.150,0.000,0.000,8,5,0,0,0,06,0,03*6d1b1084
#BESTVELA,USB3,0,58.0,FINESTEERING,1991,342654.000,00000000,827b,7053;SOL_COMPUTED,DOPPLER_VELOCITY,0.150,0.000,1.8576,359.949846,-0.2515,0.0*9f033917
#BESTXYZA,USB3,0,58.0,FINESTEERING,1991,342655.000,00000000,d821,7053;SOL_COMPUTED,SINGLE,-2693790.3528,-4260737.8476,3894566.8203,5.3503,5.4183,2.7508,SOL_COMPUTED,DOPPLER_VELOCITY,1.3174,1.5224,2.7489,0.6395,0.6476,0.3288,"",0.150,0.000,0.000,8,6,0,0,0,02,0,01*ee502099
#BESTVELA,USB3,0,58.0,FINESTEERING,1991,342655.000,00000000,827b,7053;SOL_COMPUTED,DOPPLER_VELOCITY,0.150,0.000,3.4053,5.053871,0.1162,0.0*807032ef
#BESTXYZA,USB3,0,61.5,FINESTEERING,1991,342656.000,00000000,d821,7053;SOL_COMPUTED,SINGLE,-2693785.0490,-4260734.9384,3894568.0859,5.5196,5.9545,3.8528,SOL_COMPUTED,DOPPLER_VELOCITY,2.8098,0.4512,2.9077,0.6597,0.7117,0.4605,"",0.150,0.000,0.000,8,5,0,0,0,06,0,03*bf3c83a4
#BESTVELA,USB3,0,61.5,FINESTEERING,1991,342656.000,00000000,827b,7053;SOL_COMPUTED,DOPPLER_VELOCITY,0.150,0.000,4.0576,31.727513,0.2988,0.0*6c9e5f7d
#BESTXYZA,USB3,0,62.5,FINESTEERING,1991,342657.000,00000000,d821,7053;SOL_COMPUTED,SINGLE,-2693782.3129,-4260736.4253,3894572.0926,5.1996,5.1671,2.4978,SOL_COMPUTED,DOPPLER_VELOCITY,4.2413,-0.9789,2.1824,0.6215,0.6176,0.2985,"",0.150,0.000,0.000,9,6,0,0,0,06,0,03*3e6d601b
#BESTVELA,USB3,0,62.5,FINESTEERING,1991,342657.000,00000000,827b,7053;SOL_COMPUTED,DOPPLER_VELOCITY,0.150,0.000,4.8650,57.608017,0.2038,0.0*383bd231
#BESTXYZA,USB3,0,60.0,FINESTEERING,1991,342658.000,00000000,d821,7053;SOL_COMPUTED,SINGLE,-2693777.5816,-4260738.1523,3894574.0873,5.1991,5.1663,2.4941,SOL_COMPUTED,DOPPLER_VELOCITY,5.2509,-2.1259,1.6445,0.6214,0.6175,0.2981,"",0.150,0.000,0.000,9,6,0,0,0,06,0,03*b7a95dc6
#BESTVELA,USB3,0,60.0,FINESTEERING,1991,342658.000,00000000,827b,7053;SOL_COMPUTED,DOPPLER_VELOCITY,0.150,0.000,5.8949,71.015401,0.2130,0.0*f6730a5f
#BESTXYZA,USB3,0,60.0,FINESTEERING,1991,342659.000,00000000,d821,7053;SOL_COMPUTED,SINGLE,-2693771.1799,-4260738.7682,3894573.9372,5.5208,5.9592,3.8557,SOL_COMPUTED,DOPPLER_VELOCITY,5.5428,-1.9833,1.2013,0.6599,0.7123,0.4608,"",0.150,0.000,0.000,7,5,0,0,0,06,0,03*51517cfa
#BESTVELA,USB3,0,60.0,FINESTEERING,1991,342659.000,00000000,827b,7053;SOL_COMPUTED,DOPPLER_VELOCITY,0.150,0.000,6.0019,73.171775,-0.2774,0.0*96cf5283
#BESTXYZA,USB3,0,59.5,FINESTEERING,1991,342660.000,00000000,d821,7053;SOL_COMPUTED,SINGLE,-2693765.3140,-4260741.3660,3894575.2706,5.5212,5.9608,3.8567,SOL_COMPUTED,DOPPLER_VELOCITY,6.5622,-2.8733,1.3929,0.6599,0.7124,0.4610,"",0.150,0.000,0.000,7,5,0,0,0,06,0,03*096d82ad
#BESTVELA,USB3,0,59.5,FINESTEERING,1991,342660.000,00000000,827b,7053;SOL_COMPUTED,DOPPLER_VELOCITY,0.150,0.000,7.2978,76.032270,0.0041,0.0*de3e9d66
#BESTXYZA,USB3,0,58.0,FINESTEERING,1991,342661.000,00000000,d821,7053;SOL_COMPUTED,SINGLE,-2693758.2826,-4260744.5610,3894576.8361,5.5215,5.9623,3.8576,SOL_COMPUTED,DOPPLER_VELOCITY,7.5805,-3.4157,1.6836,0.6599,0.7126,0.4611,"",0.150,0.000,0.000,7,5,0,0,0,06,0,03*74958de3
#BESTVELA,USB3,0,58.0,FINESTEERING,1991,342661.000,00000000,827b,7053;SOL_COMPUTED,DOPPLER_VELOCITY,0.150,0.000,8.4825,76.059412,0.1148,0.0*80f4a1fc
#BESTXYZA,USB3,0,58.0,FINESTEERING,1991,342662.000,00000000,d821,7053;SOL_COMPUTED,SINGLE,-2693750.1773,-4260748.2042,3894578.6131,5.5219,5.9640,3.8586,SOL_COMPUTED,DOPPLER_VELOCITY,8.1556,-3.9212,1.8889,0.6600,0.7128,0.4612,"",0.150,0.000,0.000,7,5,0,0,0,06,0,03*4800bd1d
#BESTVELA,USB3,0,58.0,FINESTEERING,1991,342662.000,00000000,827b,7053;SOL_COMPUTED,DOPPLER_VELOCITY,0.150,0.000,9.2382,76.657126,0.3355,0.0*bd56d18d
#BESTXYZA,USB3,0,52.0,FINESTEERING,1991,342663.000,00000000,d821,7053;SOL_COMPUTED,SINGLE,-2693742.1252,-4260751.8636,3894580.3660,5.5223,5.9656,3.8596,SOL_COMPUTED,DOPPLER_VELOCITY,7.9079,-3.4946,1.7276,0.6600,0.7130,0.4613,"",0.150,0.000,0.000,8,5,0,0,0,06,0,03*418ffed3
#BESTVELA,USB3,0,52.0,FINESTEERING,1991,342663.000,00000000,827b,7053;SOL_COMPUTED,DOPPLER_VELOCITY,0.150,0.000,8.8164,75.920039,0.0564,0.0*227932ec
#BESTXYZA,USB3,0,52.0,FINESTEERING,1991,342664.000,00000000,d821,7053;SOL_COMPUTED,SINGLE,-2693734.6222,-4260755.2822,3894581.9351,5.5227,5.9670,3.8605,SOL_COMPUTED,DOPPLER_VELOCITY,6.9926,-3.1684,1.5549,0.6601,0.7132,0.4614,"",0.150,0.000,0.000,8,5,0,0,0,06,0,03*cfa54c32
#BESTVELA,USB3,0,52.0,FINESTEERING,1991,342664.000,00000000,827b,7053;SOL_COMPUTED,DOPPLER_VELOCITY,0.150,0.000,7.8319,76.130321,0.1188,0.0*037a6b3c
#BESTXYZA,USB3,0,57.0,FINESTEERING,1991,342665.000,00000000,d821,7053;SOL_COMPUTED,SINGLE,-2693728.2582,-4260758.1578,3894583.3149,5.5231,5.9687,3.8615,SOL_COMPUTED,DOPPLER_VELOCITY,5.6278,-2.5847,1.2257,0.6601,0.7134,0.4615,"",0.150,0.000,0.000,8,5,0,0,0,06,0,03*4823819c
#BESTVELA,USB3,0,57.0,FINESTEERING,1991,342665.000,00000000,827b,7053;SOL_COMPUTED,DOPPLER_VELOCITY,0.150,0.000,6.3122,76.508543,0.1030,0.0*0b81aba3
#BESTXYZA,USB3,0,57.0,FINESTEERING,1991,342666.000,00000000,d821,7053;SOL_COMPUTED,SINGLE,-2693724.2784,-4260761.4464,3894585.5082,5.2214,5.2267,2.6000,SOL_COMPUTED,DOPPLER_VELOCITY,4.0336,-1.4080,0.6387,0.6241,0.6247,0.3108,"",0.150,0.000,0.000,9,6,0,0,0,06,0,03*f0ecc4cb
#BESTVELA,USB3,0,57.0,FINESTEERING,1991,342666.000,00000000,827b,7053;SOL_COMPUTED,DOPPLER_VELOCITY,0.150,0.000,4.3039,75.233978,-0.3699,0.0*af5bbd69
#BESTXYZA,USB3,0,52.5,FINESTEERING,1991,342667.000,00000000,d821,7053;SOL_COMPUTED,SINGLE,-2693721.9431,-4260763.0560,3894586.4972,5.2211,5.2263,2.5975,SOL_COMPUTED,DOPPLER_VELOCITY,1.3129,-0.7807,0.3822,0.6240,0.6247,0.3105,"",0.150,0.000,0.000,9,6,0,0,0,06,0,03*b92d8dd7
#BESTVELA,USB3,0,52.5,FINESTEERING,1991,342667.000,00000000,827b,7053;SOL_COMPUTED,DOPPLER_VELOCITY,0.150,0.000,1.5617,77.900981,0.2017,0.0*24ce57df
#BESTXYZA,USB3,0,52.5,FINESTEERING,1991,342668.000,00000000,d821,7053;SOL_COMPUTED,SINGLE,-2693721.7117,-4260763.9585,3894587.2528,5.2167,5.2155,2.5744,SOL_COMPUTED,DOPPLER_VELOCITY,-0.0293,-0.0563,0.0115,0.6235,0.6234,0.3077,"",0.150,0.000,0.000,9,6,0,0,0,06,0,03*8c32af7d
#BESTVELA,USB3,0,52.5,FINESTEERING,1991,342668.000,00000000,827b,7053;SOL_COMPUTED,DOPPLER_VELOCITY,0.150,0.000,0.0302,169.811435,0.0569,0.0*1424d252
#BESTXYZA,USB3,0,61.0,FINESTEERING,1991,342669.000,00000000,d821,7053;SOL_COMPUTED,SINGLE,-2693722.4177,-4260765.0638,3894588.3393,5.2148,5.2110,2.5635,SOL_COMPUTED,DOPPLER_VELOCITY,0.0560,0.0635,-0.0087,0.6233,0.6228,0.3064,"",0.150,0.000,0.000,9,6,0,0,0,06,0,03*7d1107cb
#BESTVELA,USB3,0,61.0,FINESTEERING,1991,342669.000,00000000,827b,7053;SOL_COMPUTED,DOPPLER_VELOCITY,0.150,0.000,0.0465,16.776771,-0.0714,0.0*0cedf452
#BESTXYZA,USB3,0,60.0,FINESTEERING,1991,342670.000,00000000,d821,7053;SOL_COMPUTED,SINGLE,-2693722.6733,-4260765.4576,3894588.7178,5.2131,5.2070,2.5536,SOL_COMPUTED,DOPPLER_VELOCITY,0.0304,0.0250,-0.0151,0.6231,0.6224,0.3052,"",0.150,0.000,0.000,9,6,0,0,0,06,0,03*55dd30cb
#BESTVELA,USB3,0,60.0,FINESTEERING,1991,342670.000,00000000,827b,7053;SOL_COMPUTED,DOPPLER_VELOCITY,0.150,0.000,0.0165,48.242364,-0.0388,0.0*10780e2f
#BESTXYZA,USB3,0,60.0,FINESTEERING,1991,342671.000,00000000,d821,7053;SOL_COMPUTED,SINGLE,-2693723.1000,-4260766.1458,3894589.3916,5.2115,5.2034,2.5445,SOL_COMPUTED,DOPPLER_VELOCITY,0.0359,0.0116,-0.0213,0.6229,0.6219,0.3041,"",0.150,0.000,0.000,9,6,0,0,0,06,0,03*099b3457
#BESTVELA,USB3,0,60.0,FINESTEERING,1991,342671.000,00000000,827b,7053;SOL_COMPUTED,DOPPLER_VELOCITY,0.150,0.000,0.0242,87.560301,-0.0360,0.0*fac4fd49
#BESTXYZA,USB3,0,53.5,FINESTEERING,1991,342672.000,00000000,d821,7053;SOL_COMPUTED,SINGLE,-2693723.1072,-4260766.1589,3894589.3938,5.2101,5.2002,2.5363,SOL_COMPUTED,DOPPLER_VELOCITY,-0.0148,-0.0162,0.0084,0.6227,0.6215,0.3031,"",0.150,0.000,0.000,9,6,0,0,0,06,0,03*dd4fcbe5
#BESTVELA,USB3,0,53.5,FINESTEERING,1991,342672.000,00000000,827b,7053;SOL_COMPUTED,DOPPLER_VELOCITY,0.150,0.000,0.0076,210.087479,0.0222,0.0*a2338362
#BESTXYZA,USB3,0,53.5,FINESTEERING,1991,342673.000,00000000,d821,7053;SOL_COMPUTED,SINGLE,-2693723.2413,-4260766.3751,3894589.6019,5.2091,5.1982,2.5303,SOL_COMPUTED,DOPPLER_VELOCITY,0.0318,-0.0092,0.0054,0.6226,0.6213,0.3024,"",0.150,0.000,0.000,9,6,0,0,0,06,0,03*ab0a358f
#BESTVELA,USB3,0,53.5,FINESTEERING,1991,342673.000,00000000,827b,7053;SOL_COMPUTED,DOPPLER_VELOCITY,0.150,0.000,0.0333,72.709894,-0.0039,0.0*fe76ba2b
#BESTXYZA,USB3,0,60.5,FINESTEERING,1991,342674.000,00000000,d821,7053;SOL_COMPUTED,SINGLE,-2693723.6305,-4260766.9517,3894590.1333,3.2343,4.2935,2.1371,SOL_COMPUTED,DOPPLER_VELOCITY,-0.0151,-0.0264,-0.0039,0.3866,0.5132,0.2554,"",0.150,0.000,0.000,9,7,0,0,0,06,0,03*46923629
#BESTVELA,USB3,0,60.5,FINESTEERING,1991,342674.000,00000000,827b,7053;SOL_COMPUTED,DOPPLER_VELOCITY,0.150,0.000,0.0218,176.600054,0.0216,0.0*3e26c135
#BESTXYZA,USB3,0,60.5,FINESTEERING,1991,342675.000,00000000,d821,7053;SOL_COMPUTED,SINGLE,-2693722.5604,-4260764.0994,3894586.4485,3.2634,4.6825,3.1760,SOL_COMPUTED,DOPPLER_VELOCITY,1.1494,-0.4885,0.2363,0.3900,0.5597,0.3796,"",0.150,0.000,0.000,9,6,0,0,0,06,0,03*ad4a8725
#BESTVELA,USB3,0,60.5,FINESTEERING,1991,342675.000,00000000,827b,7053;SOL_COMPUTED,DOPPLER_VELOCITY,0.150,0.000,1.2710,75.876530,-0.0139,0.0*a7efb801
#BESTXYZA,USB3,0,58.5,FINESTEERING,1991,342676.000,00000000,d821,7053;SOL_COMPUTED,SINGLE,-2693720.5706,-4260765.1473,3894586.6988,3.2633,4.6835,3.1767,SOL_COMPUTED,DOPPLER_VELOCITY,2.9115,-1.4285,0.1978,0.3900,0.5598,0.3797,"",0.150,0.000,0.000,8,6,0,0,0,06,0,03*56059cd5
#BESTVELA,USB3,0,58.5,FINESTEERING,1991,342676.000,00000000,827b,7053;SOL_COMPUTED,DOPPLER_VELOCITY,0.150,0.000,3.2455,83.451678,-0.1536,0.0*af396526
#BESTXYZA,USB3,0,57.5,FINESTEERING,1991,342677.000,00000000,d821,7053;SOL_COMPUTED,SINGLE,-2693717.9982,-4260766.5901,3894586.9448,3.2631,4.6841,3.1774,SOL_COMPUTED,DOPPLER_VELOCITY,2.1489,-1.3483,0.4072,0.3900,0.5599,0.3798,"",0.150,0.000,0.000,7,6,0,0,0,06,0,03*4cf2673a
#BESTVELA,USB3,0,57.5,FINESTEERING,1991,342677.000,00000000,827b,7053;SOL_COMPUTED,DOPPLER_VELOCITY,0.150,0.000,2.5578,82.658691,0.2431,0.0*fd2f79dc
#BESTXYZA,USB3,0,56.0,FINESTEERING,1991,342678.000,00000000,d821,7053;SOL_COMPUTED,SINGLE,-2693715.9940,-4260767.7948,3894587.1084,3.2633,4.6850,3.1782,SOL_COMPUTED,DOPPLER_VELOCITY,2.0136,-1.3101,0.0178,0.3900,0.5600,0.3799,"",0.150,0.000,0.000,7,6,0,0,0,06,0,03*b9bb00fa
#BESTVELA,USB3,0,56.0,FINESTEERING,1991,342678.000,00000000,827b,7053;SOL_COMPUTED,DOPPLER_VELOCITY,0.150,0.000,2.4021,90.122169,0.0356,0.0*0ed129ad
#BESTXYZA,USB3,0,56.0,FINESTEERING,1991,342679.000,00000000,d821,7053;SOL_COMPUTED,SINGLE,-2693713.8624,-4260769.5668,3894586.7694,3.2634,4.6857,3.1789,SOL_COMPUTED,DOPPLER_VELOCITY,2.3423,-2.0873,-0.7298,0.3900,0.5601,0.3800,"",0.150,0.000,0.000,7,6,0,0,0,06,0,03*c52b7351
#BESTVELA,USB3,0,56.0,FINESTEERING,1991,342679.000,00000000,827b,7053;SOL_COMPUTED,DOPPLER_VELOCITY,0.150,0.000,3.2209,106.054573,-0.0435,0.0*23d8ce0d
#BESTXYZA,USB3,0,57.5,FINESTEERING,1991,342680.000,00000000,d821,7053;SOL_COMPUTED,SINGLE,-2693712.6850,-4260773.5184,3894585.4515,2.0335,3.3630,2.9938,SOL_COMPUTED,DOPPLER_VELOCITY,1.6867,-3.5217,-2.4551,0.2431,0.4020,0.3578,"",0.150,0.000,0.000,8,7,0,0,0,06,0,03*732472d9
#BESTVELA,USB3,0,57.5,FINESTEERING,1991,342680.000,00000000,827b,7053;SOL_COMPUTED,DOPPLER_VELOCITY,0.150,0.000,4.6106,134.159424,0.1308,0.0*10b157fa
#BESTXYZA,USB3,0,49.5,FINESTEERING,1991,342681.000,00000000,d821,7053;SOL_COMPUTED,SINGLE,-2693711.7266,-4260777.2631,3894581.9751,2.0334,3.3632,2.9943,SOL_COMPUTED,DOPPLER_VELOCITY,0.5110,-4.0787,-3.9848,0.2430,0.4020,0.3579,"",0.150,0.000,0.000,8,7,0,0,0,06,0,03*79ae3fac
#BESTVELA,USB3,0,49.5,FINESTEERING,1991,342681.000,00000000,827b,7053;SOL_COMPUTED,DOPPLER_VELOCITY,0.150,0.000,5.7247,152.858077,0.0592,0.0*2811d0b1
#BESTXYZA,USB3,0,49.5,FINESTEERING,1991,342682.000,00000000,d821,7053;SOL_COMPUTED,SINGLE,-2693711.4999,-4260782.5917,3894577.5620,2.1778,4.6948,3.0145,SOL_COMPUTED,DOPPLER_VELOCITY,-0.4098,-4.1677,-4.7240,0.2603,0.5611,0.3603,"",0.150,0.000,0.000,7,6,0,0,0,06,0,03*558ed41a
#BESTVELA,USB3,0,49.5,FINESTEERING,1991,342682.000,00000000,827b,7053;SOL_COMPUTED,DOPPLER_VELOCITY,0.150,0.000,6.3128,162.665965,0.0532,0.0*5c0694a9
#BESTXYZA,USB3,0,57.0,FINESTEERING,1991,342683.000,00000000,d821,7053;SOL_COMPUTED,SINGLE,-2693712.4011,-4260784.8961,3894572.4557,2.1164,3.1741,2.1868,SOL_COMPUTED,DOPPLER_VELOCITY,-0.7300,-4.5832,-5.8196,0.2530,0.3794,0.2614,"",0.150,0.000,0.000,8,8,0,0,0,02,0,01*bc1d1724
#BESTVELA,USB3,0,57.0,FINESTEERING,1991,342683.000,00000000,827b,7053;SOL_COMPUTED,DOPPLER_VELOCITY,0.150,0.000,7.4407,165.744380,-0.2071,0.0*af213a32
#BESTXYZA,USB3,0,57.5,FINESTEERING,1991,342684.000,00000000,d821,7053;SOL_COMPUTED,SINGLE,-2693713.2801,-4260790.0754,3894565.9664,2.1188,3.1770,2.1876,SOL_COMPUTED,DOPPLER_VELOCITY,-1.0327,-5.7238,-6.8857,0.2533,0.3797,0.2615,"",0.150,0.000,0.000,8,8,0,0,0,02,0,01*ebe30bc0
#BESTVELA,USB3,0,57.5,FINESTEERING,1991,342684.000,00000000,827b,7053;SOL_COMPUTED,DOPPLER_VELOCITY,0.150,0.000,9.0133,165.964554,0.0270,0.0*cc00c70e
#BESTXYZA,USB3,0,52.5,FINESTEERING,1991,342685.000,00000000,d821,7053;SOL_COMPUTED,SINGLE,-2693714.4340,-4260795.8893,3894558.4016,2.1179,3.4706,3.0749,SOL_COMPUTED,DOPPLER_VELOCITY,-1.1999,-5.9879,-7.4528,0.2531,0.4148,0.3675,"",0.150,0.000,0.000,8,7,0,0,0,02,0,01*9e90c931
#BESTVELA,USB3,0,52.5,FINESTEERING,1991,342685.000,00000000,827b,7053;SOL_COMPUTED,DOPPLER_VELOCITY,0.150,0.000,9.6350,166.888230,-0.0744,0.0*eef4e755
#BESTXYZA,USB3,0,52.5,FINESTEERING,1991,342686.000,00000000,d821,7053;SOL_COMPUTED,SINGLE,-2693715.5330,-4260800.2679,3894550.0846,2.1596,2.2751,2.8397,SOL_COMPUTED,DOPPLER_VELOCITY,-1.0010,-6.5380,-7.6933,0.2581,0.2719,0.3394,"",0.150,0.000,0.000,8,7,0,0,0,06,0,03*698af240
#BESTVELA,USB3,0,52.5,FINESTEERING,1991,342686.000,00000000,827b,7053;SOL_COMPUTED,DOPPLER_VELOCITY,0.150,0.000,10.1454,164.871208,0.0610,0.0*9fa119a1
#BESTXYZA,USB3,0,60.0,FINESTEERING,1991,342687.000,00000000,d821,7053;SOL_COMPUTED,SINGLE,-2693716.5738,-4260807.1207,3894542.0426,2.1596,2.2469,2.8389,SOL_COMPUTED,DOPPLER_VELOCITY,-1.0488,-6.9641,-8.3641,0.2581,0.2686,0.3393,"",0.150,0.000,0.000,9,7,0,0,0,06,0,03*19bea9e7
#BESTVELA,USB3,0,60.0,FINESTEERING,1991,342687.000,00000000,827b,7053;SOL_COMPUTED,DOPPLER_VELOCITY,0.150,0.000,10.9341,164.971523,-0.0463,0.0*89719d10
#BESTXYZA,USB3,0,60.5,FINESTEERING,1991,342688.000,00000000,d821,7053;SOL_COMPUTED,SINGLE,-2693717.6930,-4260813.8712,3894533.8309,2.1594,2.2339,2.8387,SOL_COMPUTED,DOPPLER_VELOCITY,-0.9929,-6.6611,-8.2214,0.2581,0.2670,0.3393,"",0.150,0.000,0.000,9,7,0,0,0,06,0,03*ad95253d
#BESTVELA,USB3,0,60.5,FINESTEERING,1991,342688.000,00000000,827b,7053;SOL_COMPUTED,DOPPLER_VELOCITY,0.150,0.000,10.6260,165.165971,-0.1845,0.0*03e9bc85
#BESTXYZA,USB3,0,60.5,FINESTEERING,1991,342689.000,00000000,d821,7053;SOL_COMPUTED,SINGLE,-2693720.4135,-4260820.1767,3894519.8636,4.3813,9.7056,13.9349,SOL_COMPUTED,DOPPLER_VELOCITY,-0.9769,-6.5166,-7.7609,0.5237,1.1600,1.6655,"",0.150,0.000,0.000,7,5,0,0,0,06,0,03*36e81273
#BESTVELA,USB3,0,60.5,FINESTEERING,1991,342689.000,00000000,827b,7053;SOL_COMPUTED,DOPPLER_VELOCITY,0.150,0.000,10.1809,164.873406,-0.0050,0.0*8d03414a
#BESTXYZA,USB3,0,60.5,FINESTEERING,1991,342690.000,00080000,d821,7053;INSUFFICIENT_OBS,SINGLE,-2693720.9386,-4260823.4337,3894515.9469,4.3830,9.7081,13.9394,INSUFFICIENT_OBS,DOPPLER_VELOCITY,-1.6094,-5.7702,-8.4239,0.5239,1.1603,1.6661,"",0.650,0.000,0.500,6,0,0,0,0,00,0,00*48b3fc6e
#BESTVELA,USB3,0,60.5,FINESTEERING,1991,342690.000,00080000,827b,7053;INSUFFICIENT_OBS,DOPPLER_VELOCITY,0.650,0.000,10.3167,170.384145,-0.6432,0.0*f28c59ac
#BESTXYZA,USB3,0,53.5,FINESTEERING,1991,342691.000,00080000,d821,7053;SOL_COMPUTED,SINGLE,-2693721.0995,-4260834.3490,3894511.9286,2.4131,3.1749,2.2357,SOL_COMPUTED,DOPPLER_VELOCITY,-0.7707,-5.3213,-6.4741,0.2884,0.3795,0.2672,"",0.150,0.000,0.000,7,7,0,0,0,02,0,01*102de93a
#BESTVELA,USB3,0,53.5,FINESTEERING,1991,342691.000,00080000,827b,7053;SOL_COMPUTED,DOPPLER_VELOCITY,0.150,0.000,8.4151,164.899037,-0.0994,0.0*790bb4d0
#BESTXYZA,USB3,0,53.5,FINESTEERING,1991,342692.000,00000000,d821,7053;SOL_COMPUTED,SINGLE,-2693721.4117,-4260838.8277,3894505.9737,5.5934,6.0852,3.9160,SOL_COMPUTED,DOPPLER_VELOCITY,-0.8990,-4.3992,-5.3720,0.6685,0.7273,0.4681,"",0.150,0.000,0.000,5,5,0,0,0,02,0,01*6b10962d
#BESTVELA,USB3,0,53.5,FINESTEERING,1991,342692.000,00000000,827b,7053;SOL_COMPUTED,DOPPLER_VELOCITY,0.150,0.000,7.0013,166.864651,0.0162,0.0*91039d80
#BESTXYZA,USB3,0,53.0,FINESTEERING,1991,342693.000,00000000,d821,7053;SOL_COMPUTED,SINGLE,-2693721.8797,-4260842.1573,3894501.0097,3.2169,4.4892,3.1783,SOL_COMPUTED,DOPPLER_VELOCITY,-1.3324,-3.3671,-3.9360,0.3845,0.5366,0.3799,"",0.150,0.000,0.000,7,7,0,0,0,02,0,01*bd768db5
#BESTVELA,USB3,0,53.0,FINESTEERING,1991,342693.000,00000000,827b,7053;SOL_COMPUTED,DOPPLER_VELOCITY,0.150,0.000,5.3339,172.749296,0.3920,0.0*259eebf8
#BESTXYZA,USB3,0,53.0,FINESTEERING,1991,342694.000,00000000,d821,7053;SOL_COMPUTED,SINGLE,-2693722.1899,-4260843.4217,3894496.9038,2.7527,2.8092,2.8908,SOL_COMPUTED,DOPPLER_VELOCITY,-0.9856,-2.1524,-2.8341,0.3290,0.3358,0.3455,"",0.150,0.000,0.000,7,7,0,0,0,02,0,01*93acf9b3
#BESTVELA,USB3,0,53.0,FINESTEERING,1991,342694.000,00000000,827b,7053;SOL_COMPUTED,DOPPLER_VELOCITY,0.150,0.000,3.6910,175.069646,0.1118,0.0*8fca4a9e
#BESTXYZA,USB3,0,58.5,FINESTEERING,1991,342695.000,00000000,d821,7053;SOL_COMPUTED,SINGLE,-2693723.5851,-4260846.1609,3894495.3468,2.7410,2.7710,2.8855,SOL_COMPUTED,DOPPLER_VELOCITY,-0.5324,-0.9406,-1.2006,0.3276,0.3312,0.3449,"",0.150,0.000,0.000,7,7,0,0,0,02,0,01*66966235
#BESTVELA,USB3,0,58.5,FINESTEERING,1991,342695.000,00000000,827b,7053;SOL_COMPUTED,DOPPLER_VELOCITY,0.150,0.000,1.6113,178.127157,0.1151,0.0*21054cf2
#BESTXYZA,USB3,0,58.0,FINESTEERING,1991,342696.000,00000000,d821,7053;SOL_COMPUTED,SINGLE,-2693724.0948,-4260846.7510,3894493.7288,2.7346,2.7534,2.8833,SOL_COMPUTED,DOPPLER_VELOCITY,-1.0893,-1.1446,-2.1985,0.3269,0.3291,0.3446,"",0.150,0.000,0.000,7,7,0,0,0,02,0,01*73607283
#BESTVELA,USB3,0,58.0,FINESTEERING,1991,342696.000,00000000,827b,7053;SOL_COMPUTED,DOPPLER_VELOCITY,0.150,0.000,2.7045,186.561993,-0.1266,0.0*bad96c5a
#BESTXYZA,USB3,0,52.5,FINESTEERING,1991,342697.000,00000000,d821,7053;SOL_COMPUTED,SINGLE,-2693725.9612,-4260847.6163,3894490.9919,2.7319,2.7509,2.8831,SOL_COMPUTED,DOPPLER_VELOCITY,-3.1694,-0.8570,-3.1528,0.3265,0.3288,0.3446,"",0.150,0.000,0.000,7,7,0,0,0,02,0,01*13ce0ac4
#BESTVELA,USB3,0,52.5,FINESTEERING,1991,342697.000,00000000,827b,7053;SOL_COMPUTED,DOPPLER_VELOCITY,0.150,0.000,4.5518,209.204019,-0.0270,0.0*ce4ea282
#BESTXYZA,USB3,0,52.5,FINESTEERING,1991,342698.000,00000000,d821,7053;SOL_COMPUTED,SINGLE,-2693729.8278,-4260847.6320,3894488.1414,2.7327,2.7598,2.8847,SOL_COMPUTED,DOPPLER_VELOCITY,-4.5009,0.2720,-2.2202,0.3266,0.3299,0.3448,"",0.150,0.000,0.000,7,7,0,0,0,02,0,01*16f25f1f
#BESTVELA,USB3,0,52.5,FINESTEERING,1991,342698.000,00000000,827b,7053;SOL_COMPUTED,DOPPLER_VELOCITY,0.150,0.000,5.0136,231.979525,0.3540,0.0*2924f236
#BESTXYZA,USB3,0,48.0,FINESTEERING,1991,342699.000,00000000,d821,7053;SOL_COMPUTED,SINGLE,-2693734.7754,-4260846.9303,3894486.8063,3.3048,4.7657,3.2461,SOL_COMPUTED,DOPPLER_VELOCITY,-4.8111,2.2951,-0.4997,0.3950,0.5696,0.3880,"",0.150,0.000,0.000,7,6,0,0,0,02,0,01*5671fe12
#BESTVELA,USB3,0,48.0,FINESTEERING,1991,342699.000,00000000,827b,7053;SOL_COMPUTED,DOPPLER_VELOCITY,0.150,0.000,5.3504,261.596247,0.1915,0.0*82e4cb26
#BESTXYZA,USB3,0,48.0,FINESTEERING,1991,342700.000,00000000,d821,7053;SOL_COMPUTED,SINGLE,-2693742.5590,-4260845.0157,3894482.7496,6.0576,4.5254,10.9012,SOL_COMPUTED,DOPPLER_VELOCITY,-6.9645,3.0769,-1.5453,0.7240,0.5409,1.3029,"",0.150,0.000,0.000,6,6,0,0,0,02,0,01*1475cbc2
#BESTVELA,USB3,0,48.0,FINESTEERING,1991,342700.000,00000000,827b,7053;SOL_COMPUTED,DOPPLER_VELOCITY,0.150,0.000,7.7689,255.781989,-0.0638,0.0*08d6c8e6
#BESTXYZA,USB3,0,54.5,FINESTEERING,1991,342701.000,00000000,d821,7053;SOL_COMPUTED,SINGLE,-2693749.6003,-4260841.8746,3894483.3890,2.1905,3.5479,3.1108,SOL_COMPUTED,DOPPLER_VELOCITY,-8.5080,3.9100,-1.8720,0.2618,0.4241,0.3718,"",0.150,0.000,0.000,7,7,0,0,0,02,0,01*f5147d6f
#BESTVELA,USB3,0,54.5,FINESTEERING,1991,342701.000,00000000,827b,7053;SOL_COMPUTED,DOPPLER_VELOCITY,0.150,0.000,9.5472,256.430424,-0.1691,0.0*8a77e9d7
#BESTXYZA,USB3,0,58.0,FINESTEERING,1991,342702.000,00000000,d821,7053;SOL_COMPUTED,SINGLE,-2693757.7060,-4260837.8355,3894481.5061,2.1826,3.5405,3.1059,SOL_COMPUTED,DOPPLER_VELOCITY,-8.4213,3.5394,-1.7707,0.2609,0.4232,0.3712,"",0.150,0.000,0.000,7,7,0,0,0,02,0,01*501ed24d
#BESTVELA,USB3,0,58.0,FINESTEERING,1991,342702.000,00000000,827b,7053;SOL_COMPUTED,DOPPLER_VELOCITY,0.150,0.000,9.3044,255.535746,0.1038,0.0*5e2b5415
#BESTXYZA,USB3,0,57.5,FINESTEERING,1991,342703.000,00000000,d821,7053;SOL_COMPUTED,SINGLE,-2693766.0692,-4260833.9253,3894479.5742,2.1737,3.5318,3.1014,SOL_COMPUTED,DOPPLER_VELOCITY,-8.4993,3.7461,-1.8605,0.2598,0.4221,0.3707,"",0.150,0.000,0.000,7,7,0,0,0,02,0,01*188eb268
#BESTVELA,USB3,0,57.5,FINESTEERING,1991,342703.000,00000000,827b,7053;SOL_COMPUTED,DOPPLER_VELOCITY,0.150,0.000,9.4725,255.865385,-0.0563,0.0*c1240b05
#BESTXYZA,USB3,0,56.0,FINESTEERING,1991,342704.000,00000000,d821,7053;SOL_COMPUTED,SINGLE,-2693774.4089,-4260830.3710,3894477.7494,2.1695,3.5279,3.0981,SOL_COMPUTED,DOPPLER_VELOCITY,-7.9315,3.6066,-1.8453,0.2593,0.4217,0.3703,"",0.150,0.000,0.000,7,7,0,0,0,02,0,01*e4fe0006
#BESTVELA,USB3,0,56.0,FINESTEERING,1991,342704.000,00000000,827b,7053;SOL_COMPUTED,DOPPLER_VELOCITY,0.150,0.000,8.9042,255.779765,-0.1934,0.0*bde65875
#BESTXYZA,USB3,0,54.5,FINESTEERING,1991,342705.000,00000000,d821,7053;SOL_COMPUTED,SINGLE,-2693782.0522,-4260827.1614,3894476.1611,2.1622,3.5208,3.0943,SOL_COMPUTED,DOPPLER_VELOCITY,-7.0518,3.0446,-1.5243,0.2584,0.4208,0.3698,"",0.150,0.000,0.000,7,7,0,0,0,02,0,01*c5f8d34c
#BESTVELA,USB3,0,54.5,FINESTEERING,1991,342705.000,00000000,827b,7053;SOL_COMPUTED,DOPPLER_VELOCITY,0.150,0.000,7.8308,255.679326,0.0076,0.0*27cbcac8
#BESTXYZA,USB3,0,53.0,FINESTEERING,1991,342706.000,00000000,d821,7053;SOL_COMPUTED,SINGLE,-2693788.4371,-4260824.1937,3894474.7929,2.1775,3.5369,3.0943,SOL_COMPUTED,DOPPLER_VELOCITY,-5.7695,2.5493,-1.2615,0.2603,0.4227,0.3698,"",0.150,0.000,0.000,7,7,0,0,0,02,0,01*1995271c
