#INSATTA,USB1,0,55.0,FINESTEERING,1992,332757.000,00000000,5b35,7053;1992,332756.996755000,0.000000000,0.000000000,0.000000000,INS_ALIGNING*259533d7
#BESTPOSA,USB1,0,55.0,FINESTEERING,1992,332757.000,00000000,6145,7053;SOL_COMPUTED,SINGLE,37.87510982622,-122.30319423081,5.9834,-32.2000,WGS84,2.0492,1.5419,4.7929,"",0.000,0.000,8,7,0,0,0,06,0,03*ce0de595
#BESTVELA,USB1,0,55.0,FINESTEERING,1992,332757.000,00000000,827b,7053;SOL_COMPUTED,DOPPLER_VELOCITY,0.150,0.000,0.0346,1.667749,-0.0435,0.0*b86126d9
#INSATTA,USB1,0,55.0,FINESTEERING,1992,332758.000,00000000,5b35,7053;1992,332757.996755000,0.000000000,0.000000000,0.000000000,INS_ALIGNING*82ebbebf
#BESTPOSA,USB1,0,55.0,FINESTEERING,1992,332758.000,00000000,6145,7053;SOL_COMPUTED,SINGLE,37.87510957625,-122.30319424724,6.0037,-32.2000,WGS84,2.0490,1.5421,4.7934,"",0.000,0.000,8,7,0,0,0,06,0,03*939c5031
#BESTVELA,USB1,0,55.0,FINESTEERING,1992,332758.000,00000000,827b,7053;SOL_COMPUTED,DOPPLER_VELOCITY,0.150,0.000,0.0422,113.038965,0.0083,0.0*aefa71d6
#INSATTA,USB1,0,56.0,FINESTEERING,1992,332759.000,00000000,5b35,7053;1992,332758.996755000,0.000000000,0.000000000,0.000000000,INS_ALIGNING*798cb983
#BESTPOSA,USB1,0,56.0,FINESTEERING,1992,332759.000,00000000,6145,7053;SOL_COMPUTED,SINGLE,37.87510950410,-122.30319417280,5.9806,-32.2000,WGS84,2.0487,1.5422,4.7937,"",0.000,0.000,8,7,0,0,0,06,0,03*852f1466
#BESTVELA,USB1,0,56.0,FINESTEERING,1992,332759.000,00000000,827b,7053;SOL_COMPUTED,DOPPLER_VELOCITY,0.150,0.000,0.0277,33.629908,-0.0228,0.0*5b7445f0
#INSATTA,USB1,0,56.0,FINESTEERING,1992,332760.000,00000000,5b35,7053;1992,332759.996755000,0.000000000,0.000000000,0.000000000,INS_ALIGNING*eab5a745
#BESTPOSA,USB1,0,56.0,FINESTEERING,1992,332760.000,00000000,6145,7053;SOL_COMPUTED,SINGLE,37.87510945789,-122.30319410251,5.9748,-32.2000,WGS84,2.0486,1.5424,4.7943,"",0.000,0.000,8,7,0,0,0,06,0,03*08033e14
#BESTVELA,USB1,0,56.0,FINESTEERING,1992,332760.000,00000000,827b,7053;SOL_COMPUTED,DOPPLER_VELOCITY,0.150,0.000,0.0128,21.923640,0.0047,0.0*e941d699
#INSATTA,USB1,0,56.0,FINESTEERING,1992,332761.000,00000000,5b35,7053;1992,332760.996755000,0.000000000,0.000000000,0.000000000,INS_ALIGNING*207a941a
#BESTPOSA,USB1,0,56.0,FINESTEERING,1992,332761.000,00000000,6145,7053;SOL_COMPUTED,SINGLE,37.87510933879,-122.30319406747,5.9827,-32.2000,WGS84,2.0483,1.5427,4.7947,"",0.000,0.000,8,7,0,0,0,06,0,03*184fd81d
#BESTVELA,USB1,0,56.0,FINESTEERING,1992,332761.000,00000000,827b,7053;SOL_COMPUTED,DOPPLER_VELOCITY,0.150,0.000,0.0282,223.504420,0.0299,0.0*46cf3a08
#INSATTA,USB1,0,51.5,FINESTEERING,1992,332762.000,00000000,5b35,7053;1992,332761.996755000,0.000000000,0.000000000,0.000000000,INS_ALIGNING*a4f1629f
#BESTPOSA,USB1,0,51.5,FINESTEERING,1992,332762.000,00000000,6145,7053;SOL_COMPUTED,SINGLE,37.87510920100,-122.30319402371,5.9509,-32.2000,WGS84,2.0480,1.5429,4.7951,"",0.000,0.000,8,7,0,0,0,06,0,03*66cb92cf
#BESTVELA,USB1,0,51.5,FINESTEERING,1992,332762.000,00000000,827b,7053;SOL_COMPUTED,DOPPLER_VELOCITY,0.150,0.000,0.0526,98.963420,0.0423,0.0*dd293ce2
#INSATTA,USB1,0,51.5,FINESTEERING,1992,332763.000,00000000,5b35,7053;1992,332762.996755000,0.000000000,0.000000000,0.000000000,INS_ALIGNING*4696f6e3
#BESTPOSA,USB1,0,51.5,FINESTEERING,1992,332763.000,00000000,6145,7053;SOL_COMPUTED,SINGLE,37.87510903314,-122.30319417057,5.9151,-32.2000,WGS84,2.0479,1.5431,4.7957,"",0.000,0.000,8,7,0,0,0,06,0,03*7124b9fa
#BESTVELA,USB1,0,51.5,FINESTEERING,1992,332763.000,00000000,827b,7053;SOL_COMPUTED,DOPPLER_VELOCITY,0.150,0.000,0.0478,109.667467,0.0249,0.0*de1893cb
#INSATTA,USB1,0,57.5,FINESTEERING,1992,332764.000,00000000,5b35,7053;1992,332763.996755000,0.000000000,0.000000000,0.000000000,INS_ALIGNING*ad11e7ef
#BESTPOSA,USB1,0,57.5,FINESTEERING,1992,332764.000,00000000,6145,7053;SOL_COMPUTED,SINGLE,37.87510531410,-122.30319549398,6.6144,-32.2000,WGS84,3.2022,1.6756,6.6378,"",0.000,0.000,8,6,0,0,0,06,0,03*046d8092
#BESTVELA,USB1,0,57.5,FINESTEERING,1992,332764.000,00000000,827b,7053;SOL_COMPUTED,DOPPLER_VELOCITY,0.150,0.000,0.0141,175.485289,-0.0528,0.0*64afdf38
#INSATTA,USB1,0,56.0,FINESTEERING,1992,332765.000,00000000,5b35,7053;1992,332764.996755000,0.000000000,0.000000000,0.000000000,INS_ALIGNING*ff2fa255
#BESTPOSA,USB1,0,56.0,FINESTEERING,1992,332765.000,00000000,6145,7053;SOL_COMPUTED,SINGLE,37.87510517575,-122.30319570596,6.5809,-32.2000,WGS84,3.2019,1.6758,6.6385,"",0.000,0.000,8,6,0,0,0,06,0,03*e0113cc1
#BESTVELA,USB1,0,56.0,FINESTEERING,1992,332765.000,00000000,827b,7053;SOL_COMPUTED,DOPPLER_VELOCITY,0.150,0.000,0.2093,240.068034,0.1075,0.0*3d001fef
#INSATTA,USB1,0,56.0,FINESTEERING,1992,332766.000,00000000,5b35,7053;1992,332765.996755000,0.000000000,0.000000000,0.000000000,INS_ALIGNING*9f5a2e2e
#BESTPOSA,USB1,0,56.0,FINESTEERING,1992,332766.000,00000000,6145,7053;SOL_COMPUTED,SINGLE,37.87510497389,-122.30319788867,6.5525,-32.2000,WGS84,3.2008,1.6752,6.6378,"",0.000,0.000,7,6,0,0,0,06,0,03*d5d2af3b
#BESTVELA,USB1,0,56.0,FINESTEERING,1992,332766.000,00000000,827b,7053;SOL_COMPUTED,DOPPLER_VELOCITY,0.150,0.000,0.3322,258.659117,-0.1066,0.0*ee609638
#INSATTA,USB1,0,57.0,FINESTEERING,1992,332767.000,00000000,5b35,7053;1992,332766.996755000,0.000000000,0.000000000,0.000000000,INS_ALIGNING*e86e022c
#BESTPOSA,USB1,0,57.0,FINESTEERING,1992,332767.000,00000000,6145,7053;SOL_COMPUTED,SINGLE,37.87510429129,-122.30320139990,6.5501,-32.2000,WGS84,3.1988,1.6739,6.6375,"",0.000,0.000,6,6,0,0,0,06,0,03*37cbe3d3
#BESTVELA,USB1,0,57.0,FINESTEERING,1992,332767.000,00000000,827b,7053;SOL_COMPUTED,DOPPLER_VELOCITY,0.150,0.000,0.3198,269.619372,-0.1011,0.0*0eebb1b5
#INSATTA,USB1,0,50.5,FINESTEERING,1992,332768.000,00000000,5b35,7053;1992,332767.996755000,0.000000000,0.000000000,0.000000000,INS_ALIGNING*abeef5ba
#BESTPOSA,USB1,0,50.5,FINESTEERING,1992,332768.000,00000000,6145,7053;SOL_COMPUTED,SINGLE,37.87510358478,-122.30320572687,6.5667,-32.2000,WGS84,3.1983,1.6738,6.6378,"",0.000,0.000,6,6,0,0,0,06,0,03*a4dd6efe
#BESTVELA,USB1,0,50.5,FINESTEERING,1992,332768.000,00000000,827b,7053;SOL_COMPUTED,DOPPLER_VELOCITY,0.150,0.000,0.4747,253.528849,0.1367,0.0*906704a0
#INSATTA,USB1,0,50.5,FINESTEERING,1992,332769.000,00000000,5b35,7053;1992,332768.996755000,0.000000000,0.000000000,0.000000000,INS_ALIGNING*340c3c45
#BESTPOSA,USB1,0,50.5,FINESTEERING,1992,332769.000,00000000,6145,7053;SOL_COMPUTED,SINGLE,37.87510336459,-122.30320958335,6.5258,-32.2000,WGS84,3.1979,1.6739,6.6380,"",0.000,0.000,7,6,0,0,0,06,0,03*2e657b9f
#BESTVELA,USB1,0,50.5,FINESTEERING,1992,332769.000,00000000,827b,7053;SOL_COMPUTED,DOPPLER_VELOCITY,0.150,0.000,0.3769,286.283640,-0.1137,0.0*9317f425
#INSATTA,USB1,0,56.5,FINESTEERING,1992,332770.000,00000000,5b35,7053;1992,332769.996755000,0.000000000,0.000000000,0.000000000,INS_ALIGNING*0b42a2c0
#BESTPOSA,USB1,0,56.5,FINESTEERING,1992,332770.000,00000000,6145,7053;SOL_COMPUTED,SINGLE,37.87510317502,-122.30321358742,6.4706,-32.2000,WGS84,3.1973,1.6739,6.6383,"",0.000,0.000,7,6,0,0,0,06,0,03*f73c285d
#BESTVELA,USB1,0,56.5,FINESTEERING,1992,332770.000,00000000,827b,7053;SOL_COMPUTED,DOPPLER_VELOCITY,0.150,0.000,0.4130,269.111957,-0.0050,0.0*8ab288a9
#INSATTA,USB1,0,50.5,FINESTEERING,1992,332771.000,00000000,5b35,7053;1992,332770.996755000,0.000000000,0.000000000,0.000000000,INS_ALIGNING*f31c9667
#BESTPOSA,USB1,0,50.5,FINESTEERING,1992,332771.000,00000000,6145,7053;SOL_COMPUTED,SINGLE,37.87510338009,-122.30321910803,6.4428,-32.2000,WGS84,3.1968,1.6737,6.6386,"",0.000,0.000,7,6,0,0,0,06,0,03*1d3419ab
#BESTVELA,USB1,0,50.5,FINESTEERING,1992,332771.000,00000000,827b,7053;SOL_COMPUTED,DOPPLER_VELOCITY,0.150,0.000,0.4225,280.785493,-0.0145,0.0*cd58e520
#INSATTA,USB1,0,50.5,FINESTEERING,1992,332772.000,00000000,5b35,7053;1992,332771.996755000,0.000000000,0.000000000,0.000000000,INS_ALIGNING*93691a1c
#BESTPOSA,USB1,0,50.5,FINESTEERING,1992,332772.000,00000000,6145,7053;SOL_COMPUTED,SINGLE,37.87510367985,-122.30322365390,6.4077,-32.2000,WGS84,3.1963,1.6737,6.6390,"",0.000,0.000,7,6,0,0,0,06,0,03*68d3e149
#BESTVELA,USB1,0,50.5,FINESTEERING,1992,332772.000,00000000,827b,7053;SOL_COMPUTED,DOPPLER_VELOCITY,0.150,0.000,0.5072,288.054654,-0.0352,0.0*b20a1ea6
#INSATTA,USB1,0,52.5,FINESTEERING,1992,332773.000,00000000,5b35,7053;1992,332772.996755000,0.000000000,0.000000000,0.000000000,INS_ALIGNING*80d8f8dd
#BESTPOSA,USB1,0,52.5,FINESTEERING,1992,332773.000,00000000,6145,7053;SOL_COMPUTED,SINGLE,37.87510421249,-122.30323115455,6.3447,-32.2000,WGS84,3.1959,1.6738,6.6395,"",0.000,0.000,7,6,0,0,0,06,0,03*9d338c96
#BESTVELA,USB1,0,52.5,FINESTEERING,1992,332773.000,00000000,827b,7053;SOL_COMPUTED,DOPPLER_VELOCITY,0.150,0.000,0.5808,280.335252,-0.1040,0.0*5024a6b7
#INSATTA,USB1,0,55.5,FINESTEERING,1992,332774.000,00000000,5b35,7053;1992,332773.996755000,0.000000000,0.000000000,0.000000000,INS_ALIGNING*fe0c51af
#BESTPOSA,USB1,0,55.5,FINESTEERING,1992,332774.000,00000000,6145,7053;SOL_COMPUTED,SINGLE,37.87510468756,-122.30323861432,6.3572,-32.2000,WGS84,3.1954,1.6738,6.6398,"",0.000,0.000,7,6,0,0,0,06,0,03*6c71baf2
#BESTVELA,USB1,0,55.5,FINESTEERING,1992,332774.000,00000000,827b,7053;SOL_COMPUTED,DOPPLER_VELOCITY,0.150,0.000,0.7449,270.118827,0.1070,0.0*3d35cb30
#INSATTA,USB1,0,58.0,FINESTEERING,1992,332775.000,00000000,5b35,7053;1992,332774.996755000,0.000000000,0.000000000,0.000000000,INS_ALIGNING*e5542958
#BESTPOSA,USB1,0,58.0,FINESTEERING,1992,332775.000,00000000,6145,7053;SOL_COMPUTED,SINGLE,37.87509850550,-122.30324911272,7.7331,-32.2000,WGS84,2.0081,1.5406,4.7465,"",0.000,0.000,7,7,0,0,0,06,0,03*a75f8979
#BESTVELA,USB1,0,58.0,FINESTEERING,1992,332775.000,00000000,827b,7053;SOL_COMPUTED,DOPPLER_VELOCITY,0.150,0.000,0.8373,278.477488,0.0586,0.0*b1e3d83a
#INSATTA,USB1,0,58.0,FINESTEERING,1992,332776.000,00000000,5b35,7053;1992,332775.996755000,0.000000000,0.000000000,0.000000000,INS_ALIGNING*8521a523
#BESTPOSA,USB1,0,58.0,FINESTEERING,1992,332776.000,00000000,6145,7053;SOL_COMPUTED,SINGLE,37.87509805026,-122.30325849111,7.7712,-32.2000,WGS84,2.0022,1.5403,4.7385,"",0.000,0.000,7,7,0,0,0,06,0,03*0d544813
#BESTVELA,USB1,0,58.0,FINESTEERING,1992,332776.000,00000000,827b,7053;SOL_COMPUTED,DOPPLER_VELOCITY,0.150,0.000,0.7961,275.295970,-0.0369,0.0*fa7cf8cf
#INSATTA,USB1,0,63.5,FINESTEERING,1992,332777.000,00000000,5b35,7053;1992,332776.996755000,0.000000000,0.000000000,0.000000000,INS_ALIGNING*c8d76028
#BESTPOSA,USB1,0,63.5,FINESTEERING,1992,332777.000,00000000,6145,7053;SOL_COMPUTED,SINGLE,37.87509770905,-122.30326771394,7.6619,-32.2000,WGS84,1.9968,1.5400,4.7314,"",0.000,0.000,7,7,0,0,0,06,0,03*c71e2d7d
#BESTVELA,USB1,0,63.5,FINESTEERING,1992,332777.000,00000000,827b,7053;SOL_COMPUTED,DOPPLER_VELOCITY,0.150,0.000,1.0237,265.815554,-0.0398,0.0*d04842b5
#INSATTA,USB1,0,63.0,FINESTEERING,1992,332778.000,00000000,5b35,7053;1992,332777.996755000,0.000000000,0.000000000,0.000000000,INS_ALIGNING*d70fb246
#BESTPOSA,USB1,0,63.0,FINESTEERING,1992,332778.000,00000000,6145,7053;SOL_COMPUTED,SINGLE,37.87509979057,-122.30327832771,6.9377,-32.2000,WGS84,1.9846,1.5391,4.7142,"",0.000,0.000,7,7,0,0,0,06,0,03*e7549d3e
#BESTVELA,USB1,0,63.0,FINESTEERING,1992,332778.000,00000000,827b,7053;SOL_COMPUTED,DOPPLER_VELOCITY,0.150,0.000,1.0522,266.090975,-0.0485,0.0*392c674f
#INSATTA,USB1,0,63.0,FINESTEERING,1992,332779.000,00000000,5b35,7053;1992,332778.996755000,0.000000000,0.000000000,0.000000000,INS_ALIGNING*48ed7bb9
#BESTPOSA,USB1,0,63.0,FINESTEERING,1992,332779.000,00000000,6145,7053;SOL_COMPUTED,SINGLE,37.87510218644,-122.30328837630,6.2239,-32.2000,WGS84,3.1930,1.6739,6.6416,"",0.000,0.000,8,6,0,0,0,06,0,03*7aaeee2c
#BESTVELA,USB1,0,63.0,FINESTEERING,1992,332779.000,00000000,827b,7053;SOL_COMPUTED,DOPPLER_VELOCITY,0.150,0.000,0.9434,264.036125,-0.0446,0.0*0bb342db
#INSATTA,USB1,0,57.0,FINESTEERING,1992,332780.000,00000000,5b35,7053;1992,332779.996755000,0.000000000,0.000000000,0.000000000,INS_ALIGNING*6579d25f
#BESTPOSA,USB1,0,57.0,FINESTEERING,1992,332780.000,00000000,6145,7053;SOL_COMPUTED,SINGLE,37.87510163639,-122.30329856997,6.2522,-32.2000,WGS84,3.1927,1.6741,6.6422,"",0.000,0.000,8,6,0,0,0,06,0,03*149eba94
#BESTVELA,USB1,0,57.0,FINESTEERING,1992,332780.000,00000000,827b,7053;SOL_COMPUTED,DOPPLER_VELOCITY,0.150,0.000,1.0501,261.746409,0.1666,0.0*1b32dedc
#INSATTA,USB1,0,57.0,FINESTEERING,1992,332781.000,00000000,5b35,7053;1992,332780.996755000,0.000000000,0.000000000,0.000000000,INS_ALIGNING*db7ab6c7
#BESTPOSA,USB1,0,57.0,FINESTEERING,1992,332781.000,00000000,6145,7053;SOL_COMPUTED,SINGLE,37.87510182859,-122.30330946791,6.2320,-32.2000,WGS84,3.1923,1.6741,6.6426,"",0.000,0.000,8,6,0,0,0,06,0,03*2c209f0e
#BESTVELA,USB1,0,57.0,FINESTEERING,1992,332781.000,00000000,827b,7053;SOL_COMPUTED,DOPPLER_VELOCITY,0.150,0.000,0.9310,278.044950,-0.2459,0.0*9603e3e6
#INSATTA,USB1,0,59.0,FINESTEERING,1992,332782.000,00000000,5b35,7053;1992,332781.996755000,0.000000000,0.000000000,0.000000000,INS_ALIGNING*03bf714c
#BESTPOSA,USB1,0,59.0,FINESTEERING,1992,332782.000,00000000,6145,7053;SOL_COMPUTED,SINGLE,37.87510338386,-122.30332017000,6.2647,-32.2000,WGS84,3.1917,1.6743,6.6430,"",0.000,0.000,8,6,0,0,0,06,0,03*1935b909
#BESTVELA,USB1,0,59.0,FINESTEERING,1992,332782.000,00000000,827b,7053;SOL_COMPUTED,DOPPLER_VELOCITY,0.150,0.000,0.7893,286.334184,-0.0077,0.0*5f6dcf0e
#INSATTA,USB1,0,62.5,FINESTEERING,1992,332783.000,00000000,5b35,7053;1992,332782.996755000,0.000000000,0.000000000,0.000000000,INS_ALIGNING*4e49b447
#BESTPOSA,USB1,0,62.5,FINESTEERING,1992,332783.000,00000000,6145,7053;SOL_COMPUTED,SINGLE,37.87510579892,-122.30332928591,6.2480,-32.2000,WGS84,3.1911,1.6742,6.6433,"",0.000,0.000,8,6,0,0,0,06,0,03*e285381a
#BESTVELA,USB1,0,62.5,FINESTEERING,1992,332783.000,00000000,827b,7053;SOL_COMPUTED,DOPPLER_VELOCITY,0.150,0.000,0.9043,290.800490,-0.1033,0.0*ba6573b4
#INSATTA,USB1,0,64.0,FINESTEERING,1992,332784.000,00000000,5b35,7053;1992,332783.996755000,0.000000000,0.000000000,0.000000000,INS_ALIGNING*1d68fa4d
#BESTPOSA,USB1,0,64.0,FINESTEERING,1992,332784.000,00000000,6145,7053;SOL_COMPUTED,SINGLE,37.87511036279,-122.30333642408,6.0189,-32.2000,WGS84,2.1295,1.5535,4.9308,"",0.000,0.000,8,7,0,0,0,06,0,03*78bd10bf
#BESTVELA,USB1,0,64.0,FINESTEERING,1992,332784.000,00000000,827b,7053;SOL_COMPUTED,DOPPLER_VELOCITY,0.150,0.000,0.6533,301.248177,0.0601,0.0*0eb2324d
#INSATTA,USB1,0,60.0,FINESTEERING,1992,332785.000,00000000,5b35,7053;1992,332784.996755000,0.000000000,0.000000000,0.000000000,INS_ALIGNING*5a7eb3b4
#BESTPOSA,USB1,0,60.0,FINESTEERING,1992,332785.000,00000000,6145,7053;SOL_COMPUTED,SINGLE,37.87511208082,-122.30334169195,6.2771,-32.2000,WGS84,2.1289,1.5537,4.9306,"",0.000,0.000,8,7,0,0,0,06,0,03*3aa50bf8
#BESTVELA,USB1,0,60.0,FINESTEERING,1992,332785.000,00000000,827b,7053;SOL_COMPUTED,DOPPLER_VELOCITY,0.150,0.000,0.4852,316.758114,-0.1210,0.0*6f7816dc
#INSATTA,USB1,0,60.0,FINESTEERING,1992,332786.000,00000000,5b35,7053;1992,332785.996755000,0.000000000,0.000000000,0.000000000,INS_ALIGNING*3a0b3fcf
#BESTPOSA,USB1,0,60.0,FINESTEERING,1992,332786.000,00000000,6145,7053;SOL_COMPUTED,SINGLE,37.87511341833,-122.30334392911,6.3365,-32.2000,WGS84,3.1890,1.6747,6.6366,"",0.000,0.000,7,6,0,0,0,06,0,03*40a4821b
#BESTVELA,USB1,0,60.0,FINESTEERING,1992,332786.000,00000000,827b,7053;SOL_COMPUTED,DOPPLER_VELOCITY,0.150,0.000,0.1644,297.051417,0.0647,0.0*962fcdc4
#INSATTA,USB1,0,58.5,FINESTEERING,1992,332787.000,00000000,5b35,7053;1992,332786.996755000,0.000000000,0.000000000,0.000000000,INS_ALIGNING*13783407
#BESTPOSA,USB1,0,58.5,FINESTEERING,1992,332787.000,00000000,6145,7053;SOL_COMPUTED,SINGLE,37.87511411281,-122.30334463945,6.2675,-32.2000,WGS84,3.1868,1.6741,6.6360,"",0.000,0.000,7,6,0,0,0,06,0,03*10566788
#BESTVELA,USB1,0,58.5,FINESTEERING,1992,332787.000,00000000,827b,7053;SOL_COMPUTED,DOPPLER_VELOCITY,0.150,0.000,0.0302,198.510145,0.0341,0.0*0f9435b3
#INSATTA,USB1,0,58.5,FINESTEERING,1992,332788.000,00000000,5b35,7053;1992,332787.996755000,0.000000000,0.000000000,0.000000000,INS_ALIGNING*b406b96f
#BESTPOSA,USB1,0,58.5,FINESTEERING,1992,332788.000,00000000,6145,7053;SOL_COMPUTED,SINGLE,37.87511375093,-122.30334408864,6.2152,-32.2000,WGS84,3.1865,1.6742,6.6365,"",0.000,0.000,7,6,0,0,0,06,0,03*7e8416a7
#BESTVELA,USB1,0,58.5,FINESTEERING,1992,332788.000,00000000,827b,7053;SOL_COMPUTED,DOPPLER_VELOCITY,0.150,0.000,0.3513,152.562947,0.0228,0.0*b8e35df3
#INSATTA,USB1,0,60.5,FINESTEERING,1992,332789.000,00000000,5b35,7053;1992,332788.996755000,0.000000000,0.000000000,0.000000000,INS_ALIGNING*5856b022
#BESTPOSA,USB1,0,60.5,FINESTEERING,1992,332789.000,00000000,6145,7053;SOL_COMPUTED,SINGLE,37.87510801265,-122.30334012101,6.2117,-32.2000,WGS84,3.1858,1.6741,6.6367,"",0.000,0.000,7,6,0,0,0,06,0,03*5471c04d
#BESTVELA,USB1,0,60.5,FINESTEERING,1992,332789.000,00000000,827b,7053;SOL_COMPUTED,DOPPLER_VELOCITY,0.150,0.000,1.1809,155.172410,-0.1365,0.0*876acfd4
#INSATTA,USB1,0,59.5,FINESTEERING,1992,332790.000,00000000,5b35,7053;1992,332789.996755000,-1.776021433,-6.621288579,170.252966838,INS_ALIGNMENT_COMPLETE*17bf29d6
#BESTPOSA,USB1,0,59.5,FINESTEERING,1992,332790.000,00000000,6145,7053;SOL_COMPUTED,SINGLE,37.87509256139,-122.30333450331,6.1813,-32.2000,WGS84,3.1854,1.6742,6.6372,"",0.000,0.000,7,6,0,0,0,06,0,03*7c970dc3
#BESTVELA,USB1,0,59.5,FINESTEERING,1992,332790.000,00000000,827b,7053;SOL_COMPUTED,DOPPLER_VELOCITY,0.150,0.000,2.4362,169.323777,0.1376,0.0*518db283
#INSATTA,USB1,0,49.0,FINESTEERING,1992,332791.000,00000000,5b35,7053;1992,332790.996755000,-2.464744480,-7.247377348,174.010341155,INS_ALIGNMENT_COMPLETE*f5805f89
#BESTPOSA,USB1,0,49.0,FINESTEERING,1992,332791.000,00000000,6145,7053;SOL_COMPUTED,SINGLE,37.87506738531,-122.30332986389,6.1606,-32.2000,WGS84,3.1850,1.6742,6.6376,"",0.000,0.000,8,6,0,0,0,06,0,03*02657445
#BESTVELA,USB1,0,49.0,FINESTEERING,1992,332791.000,00000000,827b,7053;SOL_COMPUTED,DOPPLER_VELOCITY,0.150,0.000,3.2031,170.114153,0.1067,0.0*2cbc1fae
#INSATTA,USB1,0,49.0,FINESTEERING,1992,332792.000,00000000,5b35,7053;1992,332791.996755000,-2.144798219,-7.285832613,170.966810205,INS_ALIGNMENT_COMPLETE*ea962061
#BESTPOSA,USB1,0,49.0,FINESTEERING,1992,332792.000,00000000,6145,7053;SOL_COMPUTED,SINGLE,37.87503590637,-122.30332172811,6.1111,-32.2000,WGS84,3.1845,1.6743,6.6379,"",0.000,0.000,8,6,0,0,0,06,0,03*4dabf81a
#BESTVELA,USB1,0,49.0,FINESTEERING,1992,332792.000,00000000,827b,7053;SOL_COMPUTED,DOPPLER_VELOCITY,0.150,0.000,3.9680,168.146439,0.0366,0.0*eb95eedc
#INSATTA,USB1,0,47.5,FINESTEERING,1992,332793.000,00000000,5b35,7053;1992,332792.996755000,-2.361691207,-7.079187944,169.698813450,INS_ALIGNMENT_COMPLETE*cab964a0
#BESTPOSA,USB1,0,47.5,FINESTEERING,1992,332793.000,00000000,6145,7053;SOL_COMPUTED,SINGLE,37.87499924196,-122.30331079357,6.0657,-32.2000,WGS84,3.1841,1.6744,6.6383,"",0.000,0.000,8,6,0,0,0,06,0,03*dce0c636
#BESTVELA,USB1,0,47.5,FINESTEERING,1992,332793.000,00000000,827b,7053;SOL_COMPUTED,DOPPLER_VELOCITY,0.150,0.000,4.4487,166.811965,0.0293,0.0*d31a534c
#INSATTA,USB1,0,47.5,FINESTEERING,1992,332794.000,00000000,5b35,7053;1992,332793.996755000,-1.647111958,-8.084638770,168.281568412,INS_ALIGNMENT_COMPLETE*6072c71a
#BESTPOSA,USB1,0,47.5,FINESTEERING,1992,332794.000,00000000,6145,7053;SOL_COMPUTED,SINGLE,37.87495864215,-122.30329799973,6.0578,-32.2000,WGS84,3.1837,1.6744,6.6388,"",0.000,0.000,8,6,0,0,0,06,0,03*0a1063c9
#BESTVELA,USB1,0,47.5,FINESTEERING,1992,332794.000,00000000,827b,7053;SOL_COMPUTED,DOPPLER_VELOCITY,0.150,0.000,4.9419,165.992444,0.1742,0.0*084f008d
#INSATTA,USB1,0,48.5,FINESTEERING,1992,332795.000,00000000,5b35,7053;1992,332794.996755000,-1.665963241,-7.744120318,168.186806774,INS_ALIGNMENT_COMPLETE*337832a9
#BESTPOSA,USB1,0,48.5,FINESTEERING,1992,332795.000,00000000,6145,7053;SOL_COMPUTED,SINGLE,37.87491495661,-122.30328276227,6.0568,-32.2000,WGS84,3.1832,1.6745,6.6391,"",0.000,0.000,8,6,0,0,0,06,0,03*eaf9c345
#BESTVELA,USB1,0,48.5,FINESTEERING,1992,332795.000,00000000,827b,7053;SOL_COMPUTED,DOPPLER_VELOCITY,0.150,0.000,5.1791,165.063332,0.0115,0.0*1cb8a2b5
#INSATTA,USB1,0,47.0,FINESTEERING,1992,332796.000,00000080,5b35,7053;1992,332795.996755000,1.143049048,-5.708792018,172.143871735,INS_ALIGNMENT_COMPLETE*c5b0c54b
#BESTPOSA,USB1,0,47.0,FINESTEERING,1992,332796.000,00000080,6145,7053;SOL_COMPUTED,SINGLE,37.87486818645,-122.30326787449,6.0361,-32.2000,WGS84,3.1827,1.6745,6.6395,"",0.000,0.000,8,6,0,0,0,06,0,03*8e360fe0
#BESTVELA,USB1,0,47.0,FINESTEERING,1992,332796.000,00000080,827b,7053;SOL_COMPUTED,DOPPLER_VELOCITY,0.150,0.000,5.5099,166.690246,-0.0495,0.0*24c2be43
#INSATTA,USB1,0,47.0,FINESTEERING,1992,332797.000,00000080,5b35,7053;1992,332796.996755000,1.491428469,-4.406873626,174.220881992,INS_ALIGNMENT_COMPLETE*d0881ccd
#BESTPOSA,USB1,0,47.0,FINESTEERING,1992,332797.000,00000080,6145,7053;SOL_COMPUTED,SINGLE,37.87482109059,-122.30325428339,6.0072,-32.2000,WGS84,3.1823,1.6746,6.6398,"",0.000,0.000,8,6,0,0,0,06,0,03*e7a27174
#BESTVELA,USB1,0,47.0,FINESTEERING,1992,332797.000,00000080,827b,7053;SOL_COMPUTED,DOPPLER_VELOCITY,0.150,0.000,5.2519,167.681006,-0.0711,0.0*1d2bb7d7
#INSATTA,USB1,0,43.5,FINESTEERING,1992,332798.000,00000080,5b35,7053;1992,332797.996755000,0.362776813,-3.613168136,175.960302017,INS_ALIGNMENT_COMPLETE*cfa26a5f
#BESTPOSA,USB1,0,43.5,FINESTEERING,1992,332798.000,00000080,6145,7053;SOL_COMPUTED,SINGLE,37.87477813923,-122.30324231698,5.9379,-32.2000,WGS84,3.1819,1.6746,6.6403,"",0.000,0.000,8,6,0,0,0,06,0,03*16b55153
#BESTVELA,USB1,0,43.5,FINESTEERING,1992,332798.000,00000080,827b,7053;SOL_COMPUTED,DOPPLER_VELOCITY,0.150,0.000,4.3285,166.323213,-0.0869,0.0*5b890a4e
#INSATTA,USB1,0,39.5,FINESTEERING,1992,332799.000,00000080,5b35,7053;1992,332798.996755000,-0.293547545,-2.906086454,176.954834560,INS_ALIGNMENT_COMPLETE*b6fe579b
#BESTPOSA,USB1,0,39.5,FINESTEERING,1992,332799.000,00000080,6145,7053;SOL_COMPUTED,SINGLE,37.87474393872,-122.30323241875,5.8762,-32.2000,WGS84,3.1814,1.6746,6.6406,"",0.000,0.000,8,6,0,0,0,06,0,03*1d8de8ef
#BESTVELA,USB1,0,39.5,FINESTEERING,1992,332799.000,00000080,827b,7053;SOL_COMPUTED,DOPPLER_VELOCITY,0.150,0.000,3.4292,166.845384,-0.1268,0.0*9dee03ee
#INSATTA,USB1,0,39.5,FINESTEERING,1992,332800.000,00000080,5b35,7053;1992,332799.996755000,-1.228150273,-0.647415020,176.153249806,INS_ALIGNMENT_COMPLETE*0e0001cc
#BESTPOSA,USB1,0,39.5,FINESTEERING,1992,332800.000,00000080,6145,7053;SOL_COMPUTED,SINGLE,37.87471737313,-122.30322392109,5.9769,-32.2000,WGS84,1.9927,1.5437,4.7394,"",0.000,0.000,8,7,0,0,0,06,0,03*169264ca
#BESTVELA,USB1,0,39.5,FINESTEERING,1992,332800.000,00000080,827b,7053;SOL_COMPUTED,DOPPLER_VELOCITY,0.150,0.000,2.5993,164.036144,-0.0280,0.0*f6c24910
#INSATTA,USB1,0,43.0,FINESTEERING,1992,332801.000,00000080,5b35,7053;1992,332800.996755000,-1.927981607,-0.015319847,169.540456450,INS_ALIGNMENT_COMPLETE*d111fbed
#BESTPOSA,USB1,0,43.0,FINESTEERING,1992,332801.000,00000080,6145,7053;SOL_COMPUTED,SINGLE,37.87469947416,-122.30321586072,5.7688,-32.2000,WGS84,3.1805,1.6747,6.6414,"",0.000,0.000,8,6,0,0,0,06,0,03*826644f4
#BESTVELA,USB1,0,43.0,FINESTEERING,1992,332801.000,00000080,827b,7053;SOL_COMPUTED,DOPPLER_VELOCITY,0.150,0.000,1.9568,158.476720,-0.0049,0.0*6d32ccf2
#INSATTA,USB1,0,42.5,FINESTEERING,1992,332802.000,00000080,5b35,7053;1992,332801.996755000,-1.413176761,0.138805622,156.038675635,INS_ALIGNMENT_COMPLETE*650608b7
#BESTPOSA,USB1,0,42.5,FINESTEERING,1992,332802.000,00000080,6145,7053;SOL_COMPUTED,SINGLE,37.87468404785,-122.30320498051,5.6844,-32.2000,WGS84,3.1800,1.6747,6.6417,"",0.000,0.000,8,6,0,0,0,06,0,03*feddd710
#BESTVELA,USB1,0,42.5,FINESTEERING,1992,332802.000,00000080,827b,7053;SOL_COMPUTED,DOPPLER_VELOCITY,0.150,0.000,1.9982,143.531959,-0.1521,0.0*017baadb
#INSATTA,USB1,0,42.0,FINESTEERING,1992,332803.000,00000080,5b35,7053;1992,332802.996755000,-2.013582425,-0.856379711,144.000400365,INS_ALIGNMENT_COMPLETE*e40e10a9
#BESTPOSA,USB1,0,42.0,FINESTEERING,1992,332803.000,00000080,6145,7053;SOL_COMPUTED,SINGLE,37.87466981784,-122.30318713585,5.6350,-32.2000,WGS84,3.1796,1.6748,6.6421,"",0.000,0.000,8,6,0,0,0,06,0,03*c8dfcc76
#BESTVELA,USB1,0,42.0,FINESTEERING,1992,332803.000,00000080,827b,7053;SOL_COMPUTED,DOPPLER_VELOCITY,0.150,0.000,2.3918,129.324032,0.2362,0.0*2b25b2eb
#INSATTA,USB1,0,42.0,FINESTEERING,1992,332804.000,00000080,5b35,7053;1992,332803.996755000,-16.879657820,-30.170495182,120.367324883,INS_ALIGNMENT_COMPLETE*5ff35560
#BESTPOSA,USB1,0,42.0,FINESTEERING,1992,332804.000,00000080,6145,7053;SOL_COMPUTED,SINGLE,37.87465918591,-122.30316171879,5.5240,-32.2000,WGS84,3.1792,1.6749,6.6426,"",0.000,0.000,8,6,0,0,0,06,0,03*6578eb48
#BESTVELA,USB1,0,42.0,FINESTEERING,1992,332804.000,00000080,827b,7053;SOL_COMPUTED,DOPPLER_VELOCITY,0.150,0.000,2.5053,103.879538,-0.1702,0.0*1cdc7ce6
#INSATTA,USB1,0,49.0,FINESTEERING,1992,332805.000,00000000,5b35,7053;1992,332804.996755000,-4.648894214,-34.943155042,102.644412302,INS_ALIGNMENT_COMPLETE*8f249dce
#BESTPOSA,USB1,0,49.0,FINESTEERING,1992,332805.000,00000000,6145,7053;SOL_COMPUTED,SINGLE,37.87465462531,-122.30313148432,5.5357,-32.2000,WGS84,3.1786,1.6749,6.6429,"",0.000,0.000,8,6,0,0,0,06,0,03*e8251276
#BESTVELA,USB1,0,49.0,FINESTEERING,1992,332805.000,00000000,827b,7053;SOL_COMPUTED,DOPPLER_VELOCITY,0.150,0.000,2.7711,94.182963,0.0762,0.0*df10573d
#INSATTA,USB1,0,47.0,FINESTEERING,1992,332806.000,00000000,5b35,7053;1992,332805.996755000,6.663983356,-34.511524424,93.381975797,INS_ALIGNMENT_COMPLETE*487b22ac
#BESTPOSA,USB1,0,47.0,FINESTEERING,1992,332806.000,00000000,6145,7053;SOL_COMPUTED,SINGLE,37.87465618276,-122.30309928795,5.5489,-32.2000,WGS84,3.1781,1.6748,6.6433,"",0.000,0.000,8,6,0,0,0,06,0,03*5fc346a5
#BESTVELA,USB1,0,47.0,FINESTEERING,1992,332806.000,00000000,827b,7053;SOL_COMPUTED,DOPPLER_VELOCITY,0.150,0.000,2.9844,78.705128,0.0094,0.0*85079e33
#INSATTA,USB1,0,47.0,FINESTEERING,1992,332807.000,00000000,5b35,7053;1992,332806.996755000,11.897839142,-31.318363590,88.758434826,INS_ALIGNMENT_COMPLETE*60f6c8f2
#BESTPOSA,USB1,0,47.0,FINESTEERING,1992,332807.000,00000000,6145,7053;SOL_COMPUTED,SINGLE,37.87466123509,-122.30306655208,5.5230,-32.2000,WGS84,3.1778,1.6750,6.6437,"",0.000,0.000,8,6,0,0,0,06,0,03*678e7f01
#BESTVELA,USB1,0,47.0,FINESTEERING,1992,332807.000,00000000,827b,7053;SOL_COMPUTED,DOPPLER_VELOCITY,0.150,0.000,3.0141,76.472856,0.0408,0.0*932b46e9
#INSATTA,USB1,0,51.0,FINESTEERING,1992,332808.000,00000000,5b35,7053;1992,332807.996755000,14.273539888,-24.790392959,86.931526498,INS_ALIGNMENT_COMPLETE*f6d70f1e
#BESTPOSA,USB1,0,51.0,FINESTEERING,1992,332808.000,00000000,6145,7053;SOL_COMPUTED,SINGLE,37.87466838775,-122.30303352346,5.5252,-32.2000,WGS84,3.1774,1.6751,6.6441,"",0.000,0.000,8,6,0,0,0,06,0,03*af8bc801
#BESTVELA,USB1,0,51.0,FINESTEERING,1992,332808.000,00000000,827b,7053;SOL_COMPUTED,DOPPLER_VELOCITY,0.150,0.000,3.0445,71.497615,0.0226,0.0*710f9e54
#INSATTA,USB1,0,48.5,FINESTEERING,1992,332809.000,00000000,5b35,7053;1992,332808.996755000,14.710791472,-16.394305188,85.493400833,INS_ALIGNMENT_COMPLETE*5d64ccf0
#BESTPOSA,USB1,0,48.5,FINESTEERING,1992,332809.000,00000000,6145,7053;SOL_COMPUTED,SINGLE,37.87467701053,-122.30300073337,5.5233,-32.2000,WGS84,3.1769,1.6751,6.6445,"",0.000,0.000,8,6,0,0,0,06,0,03*1de16eda
#BESTVELA,USB1,0,48.5,FINESTEERING,1992,332809.000,00000000,827b,7053;SOL_COMPUTED,DOPPLER_VELOCITY,0.150,0.000,3.0156,70.562144,0.1799,0.0*4f7e799a
#INSATTA,USB1,0,48.5,FINESTEERING,1992,332810.000,00000080,5b35,7053;1992,332809.996755000,8.217952415,-9.547649377,89.753211250,INS_ALIGNMENT_COMPLETE*de987887
#BESTPOSA,USB1,0,48.5,FINESTEERING,1992,332810.000,00000080,6145,7053;SOL_COMPUTED,SINGLE,37.87469617884,-122.30296778011,2.9764,-32.2000,WGS84,2.1198,1.6639,4.1088,"",0.000,0.000,8,7,0,0,0,06,0,03*63ea9247
#BESTVELA,USB1,0,48.5,FINESTEERING,1992,332810.000,00000080,827b,7053;SOL_COMPUTED,DOPPLER_VELOCITY,0.150,0.000,3.2012,77.886006,0.2180,0.0*02f36dd9
#INSATTA,USB1,0,50.0,FINESTEERING,1992,332811.000,00000000,5b35,7053;1992,332810.996755000,3.176941136,-5.394938832,93.272675519,INS_ALIGNMENT_COMPLETE*0f760b8b
#BESTPOSA,USB1,0,50.0,FINESTEERING,1992,332811.000,00000000,6145,7053;SOL_COMPUTED,SINGLE,37.87470399821,-122.30292898017,3.0903,-32.2000,WGS84,2.1199,1.6640,4.1092,"",0.000,0.000,8,7,0,0,0,06,0,03*d3acb1de
#BESTVELA,USB1,0,50.0,FINESTEERING,1992,332811.000,00000000,827b,7053;SOL_COMPUTED,DOPPLER_VELOCITY,0.150,0.000,3.8165,72.476056,-0.0681,0.0*03175e5a
#INSATTA,USB1,0,50.0,FINESTEERING,1992,332812.000,00000000,5b35,7053;1992,332811.996755000,6.037897807,-7.281565483,94.040144925,INS_ALIGNMENT_COMPLETE*ed8c059e
#BESTPOSA,USB1,0,50.0,FINESTEERING,1992,332812.000,00000000,6145,7053;SOL_COMPUTED,SINGLE,37.87470305318,-122.30288438511,5.4488,-32.2000,WGS84,3.1757,1.6754,6.6457,"",0.000,0.000,7,6,0,0,0,06,0,03*8b780e1b
#BESTVELA,USB1,0,50.0,FINESTEERING,1992,332812.000,00000000,827b,7053;SOL_COMPUTED,DOPPLER_VELOCITY,0.150,0.000,4.0725,76.673385,0.0641,0.0*6427fedd
#INSATTA,USB1,0,50.0,FINESTEERING,1992,332813.000,00000000,5b35,7053;1992,332812.996755000,8.584896611,-9.968979001,94.228775515,INS_ALIGNMENT_COMPLETE*257bdb1a
#BESTPOSA,USB1,0,50.0,FINESTEERING,1992,332813.000,00000000,6145,7053;SOL_COMPUTED,SINGLE,37.87471270651,-122.30283710732,5.4625,-32.2000,WGS84,3.1752,1.6753,6.6461,"",0.000,0.000,7,6,0,0,0,06,0,03*856a2d85
#BESTVELA,USB1,0,50.0,FINESTEERING,1992,332813.000,00000000,827b,7053;SOL_COMPUTED,DOPPLER_VELOCITY,0.150,0.000,4.4286,75.042864,0.0366,0.0*d02e633e
#INSATTA,USB1,0,50.0,FINESTEERING,1992,332814.000,00000000,5b35,7053;1992,332813.996755000,8.546076420,-10.322286097,92.492739393,INS_ALIGNMENT_COMPLETE*b3fb472a
#BESTPOSA,USB1,0,50.0,FINESTEERING,1992,332814.000,00000000,6145,7053;SOL_COMPUTED,SINGLE,37.87473880239,-122.30279048278,3.4819,-32.2000,WGS84,1.9559,1.4757,4.0870,"",0.000,0.000,8,8,0,0,0,02,0,01*d52a7288
#BESTVELA,USB1,0,50.0,FINESTEERING,1992,332814.000,00000000,827b,7053;SOL_COMPUTED,DOPPLER_VELOCITY,0.150,0.000,4.3768,74.141294,-0.0387,0.0*855b18e4
#INSATTA,USB1,0,45.0,FINESTEERING,1992,332815.000,00000000,5b35,7053;1992,332814.996755000,6.770252039,-10.614448860,91.901540643,INS_ALIGNMENT_COMPLETE*c343d3e0
#BESTPOSA,USB1,0,45.0,FINESTEERING,1992,332815.000,00000000,6145,7053;SOL_COMPUTED,SINGLE,37.87475017890,-122.30274198283,3.3340,-32.2000,WGS84,1.9557,1.4756,4.0881,"",0.000,0.000,8,8,0,0,0,02,0,01*a544d42d
#BESTVELA,USB1,0,45.0,FINESTEERING,1992,332815.000,00000000,827b,7053;SOL_COMPUTED,DOPPLER_VELOCITY,0.150,0.000,4.2301,72.755392,-0.3162,0.0*e5e4082b
#INSATTA,USB1,0,45.0,FINESTEERING,1992,332816.000,00000080,5b35,7053;1992,332815.996755000,7.466632786,-9.896771244,93.154847814,INS_ALIGNMENT_COMPLETE*550c8570
#BESTPOSA,USB1,0,45.0,FINESTEERING,1992,332816.000,00000080,6145,7053;SOL_COMPUTED,SINGLE,37.87474559577,-122.30269026073,5.2882,-32.2000,WGS84,3.1739,1.6755,6.6473,"",0.000,0.000,7,6,0,0,0,06,0,03*1364dd02
#BESTVELA,USB1,0,45.0,FINESTEERING,1992,332816.000,00000080,827b,7053;SOL_COMPUTED,DOPPLER_VELOCITY,0.150,0.000,4.6349,73.213821,-0.1074,0.0*12db2913
#INSATTA,USB1,0,48.5,FINESTEERING,1992,332817.000,00000000,5b35,7053;1992,332816.996755000,7.040391839,-9.690117736,94.979224891,INS_ALIGNMENT_COMPLETE*4d1d5471
#BESTPOSA,USB1,0,48.5,FINESTEERING,1992,332817.000,00000000,6145,7053;SOL_COMPUTED,SINGLE,37.87477142629,-122.30264181564,3.3212,-32.2000,WGS84,1.9531,1.4732,4.0760,"",0.000,0.000,8,8,0,0,0,02,0,01*69c3f10c
#BESTVELA,USB1,0,48.5,FINESTEERING,1992,332817.000,00000000,827b,7053;SOL_COMPUTED,DOPPLER_VELOCITY,0.150,0.000,4.5651,75.381010,0.1063,0.0*b0c5dc3d
#INSATTA,USB1,0,50.5,FINESTEERING,1992,332818.000,00000080,5b35,7053;1992,332817.996755000,6.989723668,-8.441127093,93.003901292,INS_ALIGNMENT_COMPLETE*0353475a
#BESTPOSA,USB1,0,50.5,FINESTEERING,1992,332818.000,00000080,6145,7053;SOL_COMPUTED,SINGLE,37.87478169846,-122.30259184436,3.3001,-32.2000,WGS84,1.9519,1.4721,4.0728,"",0.000,0.000,8,8,0,0,0,02,0,01*93194877
#BESTVELA,USB1,0,50.5,FINESTEERING,1992,332818.000,00000080,827b,7053;SOL_COMPUTED,DOPPLER_VELOCITY,0.150,0.000,4.5451,72.227329,0.0047,0.0*48921477
#INSATTA,USB1,0,52.0,FINESTEERING,1992,332819.000,00000000,5b35,7053;1992,332818.996755000,8.004355048,-8.285064367,89.036651568,INS_ALIGNMENT_COMPLETE*5705c14d
#BESTPOSA,USB1,0,52.0,FINESTEERING,1992,332819.000,00000000,6145,7053;SOL_COMPUTED,SINGLE,37.87477828788,-122.30253904456,5.3488,-32.2000,WGS84,3.1725,1.6756,6.6484,"",0.000,0.000,8,6,0,0,0,06,0,03*8967660f
#BESTVELA,USB1,0,52.0,FINESTEERING,1992,332819.000,00000000,827b,7053;SOL_COMPUTED,DOPPLER_VELOCITY,0.150,0.000,4.7040,69.418432,-0.0174,0.0*7d4785a7
#INSATTA,USB1,0,48.0,FINESTEERING,1992,332820.000,00000000,5b35,7053;1992,332819.996755000,8.461494952,-9.102945029,89.783606862,INS_ALIGNMENT_COMPLETE*5d054ca7
#BESTPOSA,USB1,0,48.0,FINESTEERING,1992,332820.000,00000000,6145,7053;SOL_COMPUTED,SINGLE,37.87479228680,-122.30248794018,5.3679,-32.2000,WGS84,3.1721,1.6757,6.6488,"",0.000,0.000,7,6,0,0,0,06,0,03*f1ec3925
#BESTVELA,USB1,0,48.0,FINESTEERING,1992,332820.000,00000000,827b,7053;SOL_COMPUTED,DOPPLER_VELOCITY,0.150,0.000,4.8666,70.599289,-0.2280,0.0*fc746122
#INSATTA,USB1,0,44.0,FINESTEERING,1992,332821.000,00000080,5b35,7053;1992,332820.996755000,6.498731567,-10.006440839,93.172820445,INS_ALIGNMENT_COMPLETE*f6a08966
#BESTPOSA,USB1,0,44.0,FINESTEERING,1992,332821.000,00000080,6145,7053;SOL_COMPUTED,SINGLE,37.87480460493,-122.30243710073,5.4289,-32.2000,WGS84,3.1717,1.6758,6.6492,"",0.000,0.000,8,6,0,0,0,06,0,03*8c180000
#BESTVELA,USB1,0,44.0,FINESTEERING,1992,332821.000,00000080,827b,7053;SOL_COMPUTED,DOPPLER_VELOCITY,0.150,0.000,4.6480,74.961260,0.0153,0.0*a5c596ce
#INSATTA,USB1,0,44.0,FINESTEERING,1992,332822.000,00000080,5b35,7053;1992,332821.996755000,4.436425175,-10.524665703,99.647523254,INS_ALIGNMENT_COMPLETE*a23df723
#BESTPOSA,USB1,0,44.0,FINESTEERING,1992,332822.000,00000080,6145,7053;SOL_COMPUTED,SINGLE,37.87482868097,-122.30239183367,3.3943,-32.2000,WGS84,1.9515,1.4721,4.0743,"",0.000,0.000,8,8,0,0,0,02,0,01*3ea8ed43
#BESTVELA,USB1,0,44.0,FINESTEERING,1992,332822.000,00000080,827b,7053;SOL_COMPUTED,DOPPLER_VELOCITY,0.150,0.000,4.0378,80.038148,0.0370,0.0*e3a78402
#INSATTA,USB1,0,36.5,FINESTEERING,1992,332823.000,00000080,5b35,7053;1992,332822.996755000,2.076812227,-10.389942458,108.655182899,INS_ALIGNMENT_COMPLETE*643e03dc
#BESTPOSA,USB1,0,36.5,FINESTEERING,1992,332823.000,00000080,6145,7053;SOL_COMPUTED,SINGLE,37.87483074380,-122.30235409816,3.3593,-32.2000,WGS84,1.9508,1.4715,4.0721,"",0.000,0.000,8,8,0,0,0,02,0,01*a43e5b00
#BESTVELA,USB1,0,36.5,FINESTEERING,1992,332823.000,00000080,827b,7053;SOL_COMPUTED,DOPPLER_VELOCITY,0.150,0.000,2.8474,89.748328,0.0009,0.0*e55d3706
#INSATTA,USB1,0,36.5,FINESTEERING,1992,332824.000,00000080,5b35,7053;1992,332823.996755000,2.676451741,-10.504053798,117.011336672,INS_ALIGNMENT_COMPLETE*a0b94c13
#BESTPOSA,USB1,0,36.5,FINESTEERING,1992,332824.000,00000080,6145,7053;SOL_COMPUTED,SINGLE,37.87482913150,-122.30232831902,3.3295,-32.2000,WGS84,1.9503,1.4711,4.0704,"",0.000,0.000,8,8,0,0,0,02,0,01*1fc0962a
#BESTVELA,USB1,0,36.5,FINESTEERING,1992,332824.000,00000080,827b,7053;SOL_COMPUTED,DOPPLER_VELOCITY,0.150,0.000,1.9832,95.300511,-0.1415,0.0*569fdfa5
#INSATTA,USB1,0,43.0,FINESTEERING,1992,332825.000,00000080,5b35,7053;1992,332824.996755000,3.878232929,-10.013683273,121.549250219,INS_ALIGNMENT_COMPLETE*fa89b780
#BESTPOSA,USB1,0,43.0,FINESTEERING,1992,332825.000,00000080,6145,7053;SOL_COMPUTED,SINGLE,37.87482747399,-122.30230848260,3.3243,-32.2000,WGS84,1.9499,1.4707,4.0687,"",0.000,0.000,8,8,0,0,0,02,0,01*b00091b2
#BESTVELA,USB1,0,43.0,FINESTEERING,1992,332825.000,00000080,827b,7053;SOL_COMPUTED,DOPPLER_VELOCITY,0.150,0.000,1.6183,92.789829,0.1195,0.0*4a80ec77
#INSATTA,USB1,0,43.0,FINESTEERING,1992,332826.000,00000080,5b35,7053;1992,332825.996755000,3.811175401,-8.998804755,119.283075940,INS_ALIGNMENT_COMPLETE*e8a95e46
#BESTPOSA,USB1,0,43.0,FINESTEERING,1992,332826.000,00000080,6145,7053;SOL_COMPUTED,SINGLE,37.87482712621,-122.30229033192,3.3513,-32.2000,WGS84,1.9494,1.4703,4.0675,"",0.000,0.000,8,8,0,0,0,02,0,01*933996be
#BESTVELA,USB1,0,43.0,FINESTEERING,1992,332826.000,00000080,827b,7053;SOL_COMPUTED,DOPPLER_VELOCITY,0.150,0.000,1.8781,88.238580,0.0555,0.0*6fa4d729
#INSATTA,USB1,0,42.0,FINESTEERING,1992,332827.000,00000080,5b35,7053;1992,332826.996755000,3.876564628,-8.068573279,109.523523273,INS_ALIGNMENT_COMPLETE*31c02f9d
#BESTPOSA,USB1,0,42.0,FINESTEERING,1992,332827.000,00000080,6145,7053;SOL_COMPUTED,SINGLE,37.87482840407,-122.30226286326,3.4143,-32.2000,WGS84,1.9495,1.4706,4.0672,"",0.000,0.000,8,8,0,0,0,02,0,01*e422581f
#BESTVELA,USB1,0,42.0,FINESTEERING,1992,332827.000,00000080,827b,7053;SOL_COMPUTED,DOPPLER_VELOCITY,0.150,0.000,3.1587,84.470490,0.1349,0.0*a534fa13
#INSATTA,USB1,0,41.5,FINESTEERING,1992,332828.000,00000080,5b35,7053;1992,332827.996755000,4.563827516,-8.446475250,100.841107366,INS_ALIGNMENT_COMPLETE*e8d43367
#BESTPOSA,USB1,0,41.5,FINESTEERING,1992,332828.000,00000080,6145,7053;SOL_COMPUTED,SINGLE,37.87483353214,-122.30222052228,3.4351,-32.2000,WGS84,1.9491,1.4702,4.0665,"",0.000,0.000,8,8,0,0,0,02,0,01*9f45477a
#BESTVELA,USB1,0,41.5,FINESTEERING,1992,332828.000,00000080,827b,7053;SOL_COMPUTED,DOPPLER_VELOCITY,0.150,0.000,4.4963,79.780253,-0.0062,0.0*af9f18d7
#INSATTA,USB1,0,41.5,FINESTEERING,1992,332829.000,00000080,5b35,7053;1992,332828.996755000,6.603489864,-8.488909431,100.313404889,INS_ALIGNMENT_COMPLETE*09f79409
#BESTPOSA,USB1,0,41.5,FINESTEERING,1992,332829.000,00000080,6145,7053;SOL_COMPUTED,SINGLE,37.87484391561,-122.30216285886,3.5015,-32.2000,WGS84,1.9487,1.4699,4.0662,"",0.000,0.000,8,8,0,0,0,02,0,01*54551b67
#BESTVELA,USB1,0,41.5,FINESTEERING,1992,332829.000,00000080,827b,7053;SOL_COMPUTED,DOPPLER_VELOCITY,0.150,0.000,5.9508,75.292251,0.0633,0.0*bcb3b6ad
#INSATTA,USB1,0,41.5,FINESTEERING,1992,332830.000,00000080,5b35,7053;1992,332829.996755000,8.325470807,-8.909852101,106.874139506,INS_ALIGNMENT_COMPLETE*a23e6e6f
#BESTPOSA,USB1,0,41.5,FINESTEERING,1992,332830.000,00000080,6145,7053;SOL_COMPUTED,SINGLE,37.87485814132,-122.30209326428,3.6042,-32.2000,WGS84,1.9487,1.4700,4.0663,"",0.000,0.000,8,8,0,0,0,02,0,01*b133cede
#BESTVELA,USB1,0,41.5,FINESTEERING,1992,332830.000,00000080,827b,7053;SOL_COMPUTED,DOPPLER_VELOCITY,0.150,0.000,6.6392,76.582415,0.0115,0.0*d50fa67e
#INSATTA,USB1,0,35.5,FINESTEERING,1992,332831.000,00000080,5b35,7053;1992,332830.996755000,7.666610160,-11.393174581,110.497177033,INS_ALIGNMENT_COMPLETE*6e50523d
#BESTPOSA,USB1,0,35.5,FINESTEERING,1992,332831.000,00000080,6145,7053;SOL_COMPUTED,SINGLE,37.87487367338,-122.30201511736,3.7090,-32.2000,WGS84,1.9486,1.4699,4.0665,"",0.000,0.000,8,8,0,0,0,02,0,01*6c6f6167
#BESTVELA,USB1,0,35.5,FINESTEERING,1992,332831.000,00000080,827b,7053;SOL_COMPUTED,DOPPLER_VELOCITY,0.150,0.000,7.3392,75.350885,-0.0368,0.0*c790edce
#INSATTA,USB1,0,35.5,FINESTEERING,1992,332832.000,00000080,5b35,7053;1992,332831.996755000,6.816729545,-13.042426054,110.022776170,INS_ALIGNMENT_COMPLETE*56a6b755
#BESTPOSA,USB1,0,35.5,FINESTEERING,1992,332832.000,00000080,6145,7053;SOL_COMPUTED,SINGLE,37.87489020962,-122.30193047837,3.8365,-32.2000,WGS84,1.9485,1.4699,4.0671,"",0.000,0.000,8,8,0,0,0,02,0,01*13b2eba4
#BESTVELA,USB1,0,35.5,FINESTEERING,1992,332832.000,00000080,827b,7053;SOL_COMPUTED,DOPPLER_VELOCITY,0.150,0.000,7.9945,76.653172,0.1599,0.0*9f17d2b5
#INSATTA,USB1,0,43.0,FINESTEERING,1992,332833.000,00000080,5b35,7053;1992,332832.996755000,6.151805407,-13.827740786,109.661328973,INS_ALIGNMENT_COMPLETE*0174739a
#BESTPOSA,USB1,0,43.0,FINESTEERING,1992,332833.000,00000080,6145,7053;SOL_COMPUTED,SINGLE,37.87490789392,-122.30184094318,3.8727,-32.2000,WGS84,1.9483,1.4699,4.0670,"",0.000,0.000,8,8,0,0,0,02,0,01*2aae9091
#BESTVELA,USB1,0,43.0,FINESTEERING,1992,332833.000,00000080,827b,7053;SOL_COMPUTED,DOPPLER_VELOCITY,0.150,0.000,8.1555,75.897206,0.0795,0.0*f4ebff83
#INSATTA,USB1,0,43.0,FINESTEERING,1992,332834.000,00000080,5b35,7053;1992,332833.996755000,6.086448950,-13.976512794,108.835017515,INS_ALIGNMENT_COMPLETE*f237a1cd
#BESTPOSA,USB1,0,43.0,FINESTEERING,1992,332834.000,00000080,6145,7053;SOL_COMPUTED,SINGLE,37.87491429735,-122.30174571565,5.0409,-32.2000,WGS84,2.0038,1.5522,4.7815,"",0.000,0.000,8,7,0,0,0,06,0,03*db8ce2d1
#BESTVELA,USB1,0,43.0,FINESTEERING,1992,332834.000,00000080,827b,7053;SOL_COMPUTED,DOPPLER_VELOCITY,0.150,0.000,8.3125,75.455915,0.1775,0.0*15c8b216
#INSATTA,USB1,0,43.5,FINESTEERING,1992,332835.000,00000080,5b35,7053;1992,332834.996755000,6.539993273,-13.848486568,106.886735669,INS_ALIGNMENT_COMPLETE*b1697835
#BESTPOSA,USB1,0,43.5,FINESTEERING,1992,332835.000,00000080,6145,7053;SOL_COMPUTED,SINGLE,37.87493419046,-122.30165364531,5.0593,-32.2000,WGS84,2.0034,1.5524,4.7817,"",0.000,0.000,8,7,0,0,0,06,0,03*70711e53
#BESTVELA,USB1,0,43.5,FINESTEERING,1992,332835.000,00000080,827b,7053;SOL_COMPUTED,DOPPLER_VELOCITY,0.150,0.000,8.4426,73.774294,0.0470,0.0*3e22e8eb
#INSATTA,USB1,0,43.5,FINESTEERING,1992,332836.000,00000080,5b35,7053;1992,332835.996755000,6.341542982,-12.760618848,105.840325390,INS_ALIGNMENT_COMPLETE*a3d370b9
#BESTPOSA,USB1,0,43.5,FINESTEERING,1992,332836.000,00000080,6145,7053;SOL_COMPUTED,SINGLE,37.87496216010,-122.30156850356,3.2579,-32.2000,WGS84,1.7393,1.3205,3.7886,"",0.000,0.000,8,8,0,0,0,06,0,03*276a10d1
#BESTVELA,USB1,0,43.5,FINESTEERING,1992,332836.000,00000080,827b,7053;SOL_COMPUTED,DOPPLER_VELOCITY,0.150,0.000,8.3473,72.375679,0.3293,0.0*7c9bd4e9
#INSATTA,USB1,0,43.5,FINESTEERING,1992,332837.000,00000080,5b35,7053;1992,332836.996755000,5.435221556,-11.984779860,107.512665790,INS_ALIGNMENT_COMPLETE*24825768
#BESTPOSA,USB1,0,43.5,FINESTEERING,1992,332837.000,00000080,6145,7053;SOL_COMPUTED,SINGLE,37.87498109304,-122.30147919294,3.1964,-32.2000,WGS84,1.9358,1.3819,3.8581,"",0.000,0.000,7,7,0,0,0,06,0,03*7ef22a8d
#BESTVELA,USB1,0,43.5,FINESTEERING,1992,332837.000,00000080,827b,7053;SOL_COMPUTED,DOPPLER_VELOCITY,0.150,0.000,8.0307,74.520942,0.3462,0.0*70503556
#INSATTA,USB1,0,36.5,FINESTEERING,1992,332838.000,00000080,5b35,7053;1992,332837.996755000,4.829578256,-10.961309776,109.226275511,INS_ALIGNMENT_COMPLETE*a4025348
#BESTPOSA,USB1,0,36.5,FINESTEERING,1992,332838.000,00000080,6145,7053;SOL_COMPUTED,SINGLE,37.87499925323,-122.30139513098,3.2668,-32.2000,WGS84,1.9356,1.3814,3.8578,"",0.000,0.000,7,7,0,0,0,06,0,03*123e700d
#BESTVELA,USB1,0,36.5,FINESTEERING,1992,332838.000,00000080,827b,7053;SOL_COMPUTED,DOPPLER_VELOCITY,0.150,0.000,7.1756,74.620951,0.2068,0.0*6e2ec2d6
#INSATTA,USB1,0,36.5,FINESTEERING,1992,332839.000,00000080,5b35,7053;1992,332838.996755000,5.216742110,-10.196657950,110.259224728,INS_ALIGNMENT_COMPLETE*69ff1d2a
#BESTPOSA,USB1,0,36.5,FINESTEERING,1992,332839.000,00000080,6145,7053;SOL_COMPUTED,SINGLE,37.87501315254,-122.30132862358,3.3335,-32.2000,WGS84,2.8060,1.8142,4.3398,"",0.000,0.000,8,7,0,0,0,06,0,03*cfa6f242
#BESTVELA,USB1,0,36.5,FINESTEERING,1992,332839.000,00000080,827b,7053;SOL_COMPUTED,DOPPLER_VELOCITY,0.150,0.000,5.4249,77.968842,-0.3001,0.0*dfdcf28f
#INSATTA,USB1,0,41.0,FINESTEERING,1992,332840.000,00000080,5b35,7053;1992,332839.996755000,5.773331176,-10.568462647,109.720514448,INS_ALIGNMENT_COMPLETE*6cd3689e
#BESTPOSA,USB1,0,41.0,FINESTEERING,1992,332840.000,00000080,6145,7053;SOL_COMPUTED,SINGLE,37.87502632519,-122.30126928020,3.5217,-32.2000,WGS84,1.7421,1.3215,3.7902,"",0.000,0.000,8,8,0,0,0,06,0,03*7e51343d
#BESTVELA,USB1,0,41.0,FINESTEERING,1992,332840.000,00000080,827b,7053;SOL_COMPUTED,DOPPLER_VELOCITY,0.150,0.000,5.1557,71.593914,0.4021,0.0*80e41724
#INSATTA,USB1,0,45.5,FINESTEERING,1992,332841.000,00000000,5b35,7053;1992,332840.996755000,6.912050089,-8.173773091,98.290007750,INS_ALIGNMENT_COMPLETE*b4641d9f
#BESTPOSA,USB1,0,45.5,FINESTEERING,1992,332841.000,00000000,6145,7053;SOL_COMPUTED,SINGLE,37.87504423130,-122.30122141334,3.6250,-32.2000,WGS84,1.7409,1.3212,3.7903,"",0.000,0.000,8,8,0,0,0,06,0,03*377c4bb3
#BESTVELA,USB1,0,45.5,FINESTEERING,1992,332841.000,00000000,827b,7053;SOL_COMPUTED,DOPPLER_VELOCITY,0.150,0.000,4.2909,53.515952,0.1409,0.0*b6409e39
#INSATTA,USB1,0,52.5,FINESTEERING,1992,332842.000,00000000,5b35,7053;1992,332841.996755000,7.956274049,-4.295742695,76.934359199,INS_ALIGNMENT_COMPLETE*466c08a4
#BESTPOSA,USB1,0,52.5,FINESTEERING,1992,332842.000,00000000,6145,7053;SOL_COMPUTED,SINGLE,37.87507196972,-122.30119063231,3.6671,-32.2000,WGS84,1.7398,1.3207,3.7896,"",0.000,0.000,8,8,0,0,0,06,0,03*38298f0c
#BESTVELA,USB1,0,52.5,FINESTEERING,1992,332842.000,00000000,827b,7053;SOL_COMPUTED,DOPPLER_VELOCITY,0.150,0.000,4.0436,27.516979,-0.0626,0.0*29f7aa50
#INSATTA,USB1,0,52.5,FINESTEERING,1992,332843.000,00000000,5b35,7053;1992,332842.996755000,6.986998027,-2.110010136,63.012988394,INS_ALIGNMENT_COMPLETE*ec6c0b48
#BESTPOSA,USB1,0,52.5,FINESTEERING,1992,332843.000,00000000,6145,7053;SOL_COMPUTED,SINGLE,37.87509628293,-122.30117413819,6.3652,-32.2000,WGS84,3.1616,1.6770,6.6582,"",0.000,0.000,6,6,0,0,0,06,0,03*d207e0b0
#BESTVELA,USB1,0,52.5,FINESTEERING,1992,332843.000,00000000,827b,7053;SOL_COMPUTED,DOPPLER_VELOCITY,0.150,0.000,4.1437,6.555947,0.2525,0.0*ee745e4c
#INSATTA,USB1,0,53.0,FINESTEERING,1992,332844.000,00000000,5b35,7053;1992,332843.996755000,6.672042637,-1.210191617,54.924213066,INS_ALIGNMENT_COMPLETE*a31d38c3
#BESTPOSA,USB1,0,53.0,FINESTEERING,1992,332844.000,00000000,6145,7053;SOL_COMPUTED,SINGLE,37.87513610132,-122.30118032852,6.2534,-32.2000,WGS84,3.1609,1.6766,6.6584,"",0.000,0.000,7,6,0,0,0,06,0,03*0f2eef6c
#BESTVELA,USB1,0,53.0,FINESTEERING,1992,332844.000,00000000,827b,7053;SOL_COMPUTED,DOPPLER_VELOCITY,0.150,0.000,4.8233,343.671017,0.0259,0.0*412f4373
#INSATTA,USB1,0,50.5,FINESTEERING,1992,332845.000,00000000,5b35,7053;1992,332844.996755000,6.984030358,0.869418939,57.893110921,INS_ALIGNMENT_COMPLETE*df3b5b89
#BESTPOSA,USB1,0,50.5,FINESTEERING,1992,332845.000,00000000,6145,7053;SOL_COMPUTED,SINGLE,37.87518640071,-122.30120356819,6.2346,-32.2000,WGS84,3.1607,1.6767,6.6586,"",0.000,0.000,7,6,0,0,0,06,0,03*07ab4e02
#BESTVELA,USB1,0,50.5,FINESTEERING,1992,332845.000,00000000,827b,7053;SOL_COMPUTED,DOPPLER_VELOCITY,0.150,0.000,7.0096,339.899554,-0.0558,0.0*3f711fc4
#INSATTA,USB1,0,44.5,FINESTEERING,1992,332846.000,00000000,5b35,7053;1992,332845.996755000,7.187820621,0.319868059,70.253472198,INS_ALIGNMENT_COMPLETE*03167055
#BESTPOSA,USB1,0,44.5,FINESTEERING,1992,332846.000,00000000,6145,7053;SOL_COMPUTED,SINGLE,37.87525646878,-122.30123069008,6.2053,-32.2000,WGS84,3.1597,1.6761,6.6589,"",0.000,0.000,7,6,0,0,0,06,0,03*1f72a617
#BESTVELA,USB1,0,44.5,FINESTEERING,1992,332846.000,00000000,827b,7053;SOL_COMPUTED,DOPPLER_VELOCITY,0.150,0.000,9.1637,344.989134,-0.0626,0.0*45b80559
#INSATTA,USB1,0,44.5,FINESTEERING,1992,332847.000,00000000,5b35,7053;1992,332846.996755000,6.417753086,0.064772512,78.294024317,INS_ALIGNMENT_COMPLETE*6761f49f
#BESTPOSA,USB1,0,44.5,FINESTEERING,1992,332847.000,00000000,6145,7053;SOL_COMPUTED,SINGLE,37.87534026249,-122.30125835978,6.1884,-32.2000,WGS84,3.1594,1.6763,6.6596,"",0.000,0.000,6,6,0,0,0,06,0,03*7ac0e73b
#BESTVELA,USB1,0,44.5,FINESTEERING,1992,332847.000,00000000,827b,7053;SOL_COMPUTED,DOPPLER_VELOCITY,0.150,0.000,9.6154,345.760573,-0.2318,0.0*8462a707
#INSATTA,USB1,0,41.0,FINESTEERING,1992,332848.000,00000080,5b35,7053;1992,332847.996755000,6.487005119,-0.019964634,84.775857501,INS_ALIGNMENT_COMPLETE*dbd13167
#BESTPOSA,USB1,0,41.0,FINESTEERING,1992,332848.000,00000080,6145,7053;SOL_COMPUTED,SINGLE,37.87542887546,-122.30128757007,5.5524,-32.2000,WGS84,4.4093,2.0998,7.6482,"",0.000,0.000,5,5,0,0,0,06,0,03*23520f8f
#BESTVELA,USB1,0,41.0,FINESTEERING,1992,332848.000,00000080,827b,7053;SOL_COMPUTED,DOPPLER_VELOCITY,0.150,0.000,9.5815,345.207382,0.3426,0.0*c95fa68d
#INSATTA,USB1,0,37.0,FINESTEERING,1992,332849.000,00000080,5b35,7053;1992,332848.996755000,6.455900294,-0.968566364,90.531661058,INS_ALIGNMENT_COMPLETE*701c9d88
#BESTPOSA,USB1,0,37.0,FINESTEERING,1992,332849.000,00000080,6145,7053;SOL_COMPUTED,SINGLE,37.87551646695,-122.30131543393,5.1523,-32.2000,WGS84,4.6725,3.2424,7.1583,"",0.000,0.000,7,6,0,0,0,02,0,01*fad50486
#BESTVELA,USB1,0,37.0,FINESTEERING,1992,332849.000,00000080,827b,7053;SOL_COMPUTED,DOPPLER_VELOCITY,0.150,0.000,9.5006,345.891750,-0.0386,0.0*c7736006
#INSATTA,USB1,0,37.0,FINESTEERING,1992,332850.000,00000080,5b35,7053;1992,332849.996755000,6.317807274,-1.133489781,94.901260664,INS_ALIGNMENT_COMPLETE*00744bc3
#BESTPOSA,USB1,0,37.0,FINESTEERING,1992,332850.000,00000080,6145,7053;SOL_COMPUTED,SINGLE,37.87559734457,-122.30134308013,6.1557,-32.2000,WGS84,2.1941,1.6772,4.9465,"",0.000,0.000,8,8,0,0,0,02,0,01*41d643ba
#BESTVELA,USB1,0,37.0,FINESTEERING,1992,332850.000,00000080,827b,7053;SOL_COMPUTED,DOPPLER_VELOCITY,0.150,0.000,9.4319,345.928901,0.1156,0.0*8394c566
#INSATTA,USB1,0,41.5,FINESTEERING,1992,332851.000,00000080,5b35,7053;1992,332850.996755000,6.099320711,-2.112990449,98.002229175,INS_ALIGNMENT_COMPLETE*3d8e597c
#BESTPOSA,USB1,0,41.5,FINESTEERING,1992,332851.000,00000080,6145,7053;SOL_COMPUTED,SINGLE,37.87568398080,-122.30136693285,4.9868,-32.2000,WGS84,1.9926,1.5120,4.1647,"",0.000,0.000,8,8,0,0,0,02,0,01*a4b73b01
#BESTVELA,USB1,0,41.5,FINESTEERING,1992,332851.000,00000080,827b,7053;SOL_COMPUTED,DOPPLER_VELOCITY,0.150,0.000,9.1388,345.678223,-0.0320,0.0*1beb486c
#INSATTA,USB1,0,41.5,FINESTEERING,1992,332852.000,00000080,5b35,7053;1992,332851.996755000,5.590362391,-2.213853028,100.846020963,INS_ALIGNMENT_COMPLETE*5e3a0c42
#BESTPOSA,USB1,0,41.5,FINESTEERING,1992,332852.000,00000080,6145,7053;SOL_COMPUTED,SINGLE,37.87576140687,-122.30139161175,5.1721,-32.2000,WGS84,1.9885,1.5085,4.1529,"",0.000,0.000,8,8,0,0,0,02,0,01*6c573dc3
#BESTVELA,USB1,0,41.5,FINESTEERING,1992,332852.000,00000080,827b,7053;SOL_COMPUTED,DOPPLER_VELOCITY,0.150,0.000,8.7417,345.334107,-0.0386,0.0*e238a8ba
#INSATTA,USB1,0,35.5,FINESTEERING,1992,332853.000,00000080,5b35,7053;1992,332852.996755000,5.203389469,-2.981420961,102.449390111,INS_ALIGNMENT_COMPLETE*5d5fd219
#BESTPOSA,USB1,0,35.5,FINESTEERING,1992,332853.000,00000080,6145,7053;SOL_COMPUTED,SINGLE,37.87583816452,-122.30141492777,4.8798,-32.2000,WGS84,1.9822,1.5031,4.1441,"",0.000,0.000,8,8,0,0,0,02,0,01*c56a59b0
#BESTVELA,USB1,0,35.5,FINESTEERING,1992,332853.000,00000080,827b,7053;SOL_COMPUTED,DOPPLER_VELOCITY,0.150,0.000,8.5208,345.355983,-0.0304,0.0*1c92cd5a
#INSATTA,USB1,0,35.5,FINESTEERING,1992,332854.000,00000080,5b35,7053;1992,332853.996755000,5.258077400,-3.510316062,102.947221562,INS_ALIGNMENT_COMPLETE*5035d359
#BESTPOSA,USB1,0,35.5,FINESTEERING,1992,332854.000,00000080,6145,7053;SOL_COMPUTED,SINGLE,37.87590923686,-122.30143850828,5.2165,-32.2000,WGS84,1.9792,1.5005,4.1361,"",0.000,0.000,8,8,0,0,0,02,0,01*fff75114
#BESTVELA,USB1,0,35.5,FINESTEERING,1992,332854.000,00000080,827b,7053;SOL_COMPUTED,DOPPLER_VELOCITY,0.150,0.000,8.2690,345.484669,-0.0344,0.0*acf90342
#INSATTA,USB1,0,41.0,FINESTEERING,1992,332855.000,00000080,5b35,7053;1992,332854.996755000,4.776506268,-4.037583746,103.020244111,INS_ALIGNMENT_COMPLETE*655252ab
#BESTPOSA,USB1,0,41.0,FINESTEERING,1992,332855.000,00000080,6145,7053;SOL_COMPUTED,SINGLE,37.87597976581,-122.30145951851,5.2538,-32.2000,WGS84,1.9752,1.4970,4.1270,"",0.000,0.000,8,8,0,0,0,02,0,01*f2ec506e
#BESTVELA,USB1,0,41.0,FINESTEERING,1992,332855.000,00000080,827b,7053;SOL_COMPUTED,DOPPLER_VELOCITY,0.150,0.000,7.7682,346.111549,-0.0076,0.0*fea25af4
#INSATTA,USB1,0,42.5,FINESTEERING,1992,332856.000,00000080,5b35,7053;1992,332855.996755000,4.496608968,-4.705302402,102.474208058,INS_ALIGNMENT_COMPLETE*2a79c0d3
#BESTPOSA,USB1,0,42.5,FINESTEERING,1992,332856.000,00000080,6145,7053;SOL_COMPUTED,SINGLE,37.87604137795,-122.30147970651,5.4390,-32.2000,WGS84,2.4128,1.8845,4.5002,"",0.000,0.000,8,7,0,0,0,02,0,01*232af662
#BESTVELA,USB1,0,42.5,FINESTEERING,1992,332856.000,00000080,827b,7053;SOL_COMPUTED,DOPPLER_VELOCITY,0.150,0.000,6.4546,345.885482,0.1654,0.0*fdfea021
#INSATTA,USB1,0,42.5,FINESTEERING,1992,332857.000,00000080,5b35,7053;1992,332856.996755000,4.504818489,-4.646272704,102.668620551,INS_ALIGNMENT_COMPLETE*34806b2c
#BESTPOSA,USB1,0,42.5,FINESTEERING,1992,332857.000,00000080,6145,7053;SOL_COMPUTED,SINGLE,37.87609264720,-122.30149528537,5.2700,-32.2000,WGS84,2.4099,1.8843,4.4934,"",0.000,0.000,8,7,0,0,0,02,0,01*23f96e70
#BESTVELA,USB1,0,42.5,FINESTEERING,1992,332857.000,00000080,827b,7053;SOL_COMPUTED,DOPPLER_VELOCITY,0.150,0.000,4.9620,348.404581,-0.0743,0.0*3551769e
#INSATTA,USB1,0,42.0,FINESTEERING,1992,332858.000,00000080,5b35,7053;1992,332857.996755000,3.620586579,-5.890004324,109.421368374,INS_ALIGNMENT_COMPLETE*f0f355ff
#BESTPOSA,USB1,0,42.0,FINESTEERING,1992,332858.000,00000080,6145,7053;SOL_COMPUTED,SINGLE,37.87613217664,-122.30149958595,5.2002,-32.2000,WGS84,1.9632,1.4863,4.1077,"",0.000,0.000,8,8,0,0,0,02,0,01*0d85d13c
#BESTVELA,USB1,0,42.0,FINESTEERING,1992,332858.000,00000080,827b,7053;SOL_COMPUTED,DOPPLER_VELOCITY,0.150,0.000,3.9929,2.119099,0.1971,0.0*e67f9532
#INSATTA,USB1,0,42.0,FINESTEERING,1992,332859.000,00000080,5b35,7053;1992,332858.996755000,1.610599653,-6.847376472,118.832864566,INS_ALIGNMENT_COMPLETE*71cb97a9
#BESTPOSA,USB1,0,42.0,FINESTEERING,1992,332859.000,00000080,6145,7053;SOL_COMPUTED,SINGLE,37.87616568675,-122.30149256895,5.2971,-32.2000,WGS84,1.9570,1.4806,4.0997,"",0.000,0.000,8,8,0,0,0,02,0,01*91221bcf
#BESTVELA,USB1,0,42.0,FINESTEERING,1992,332859.000,00000080,827b,7053;SOL_COMPUTED,DOPPLER_VELOCITY,0.150,0.000,3.8379,17.818076,0.0090,0.0*cfe88fb0
#INSATTA,USB1,0,42.0,FINESTEERING,1992,332860.000,00000080,5b35,7053;1992,332859.996755000,0.251958256,-7.263618298,133.562851928,INS_ALIGNMENT_COMPLETE*45fd4919
#BESTPOSA,USB1,0,42.0,FINESTEERING,1992,332860.000,00000080,6145,7053;SOL_COMPUTED,SINGLE,37.87619521079,-122.30147408914,5.2941,-32.2000,WGS84,1.9548,1.4786,4.0955,"",0.000,0.000,8,8,0,0,0,02,0,01*6fdf0727
#BESTVELA,USB1,0,42.0,FINESTEERING,1992,332860.000,00000080,827b,7053;SOL_COMPUTED,DOPPLER_VELOCITY,0.150,0.000,3.6516,33.257617,0.4211,0.0*c0af5190
#INSATTA,USB1,0,43.5,FINESTEERING,1992,332861.000,00000000,5b35,7053;1992,332860.996755000,-1.530294228,-8.341563714,151.476281570,INS_ALIGNMENT_COMPLETE*cf860016
#BESTPOSA,USB1,0,43.5,FINESTEERING,1992,332861.000,00000000,6145,7053;SOL_COMPUTED,SINGLE,37.87621871577,-122.30144641855,5.2683,-32.2000,WGS84,1.9532,1.4771,4.0924,"",0.000,0.000,8,8,0,0,0,02,0,01*b5873dff
#BESTVELA,USB1,0,43.5,FINESTEERING,1992,332861.000,00000000,827b,7053;SOL_COMPUTED,DOPPLER_VELOCITY,0.150,0.000,3.6338,49.040628,0.0668,0.0*ea7412d5
#INSATTA,USB1,0,47.5,FINESTEERING,1992,332862.000,00000000,5b35,7053;1992,332861.996755000,-2.386788269,-6.937716442,168.146088432,INS_ALIGNMENT_COMPLETE*d79a9002
#BESTPOSA,USB1,0,47.5,FINESTEERING,1992,332862.000,00000000,6145,7053;SOL_COMPUTED,SINGLE,37.87623615908,-122.30141199327,5.2656,-32.2000,WGS84,1.9518,1.4758,4.0893,"",0.000,0.000,8,8,0,0,0,02,0,01*5add586a
#BESTVELA,USB1,0,47.5,FINESTEERING,1992,332862.000,00000000,827b,7053;SOL_COMPUTED,DOPPLER_VELOCITY,0.150,0.000,3.7872,59.851518,0.1589,0.0*54a328e5
#INSATTA,USB1,0,52.0,FINESTEERING,1992,332863.000,00000000,5b35,7053;1992,332862.996755000,-2.654537612,-6.249553818,177.413517436,INS_ALIGNMENT_COMPLETE*f5151e4a
#BESTPOSA,USB1,0,52.0,FINESTEERING,1992,332863.000,00000000,6145,7053;SOL_COMPUTED,SINGLE,37.87624886243,-122.30137116972,5.2999,-32.2000,WGS84,1.9503,1.4745,4.0858,"",0.000,0.000,8,8,0,0,0,02,0,01*3e542929
#BESTVELA,USB1,0,52.0,FINESTEERING,1992,332863.000,00000000,827b,7053;SOL_COMPUTED,DOPPLER_VELOCITY,0.150,0.000,4.1083,69.803344,0.1472,0.0*e0a049d3
#INSATTA,USB1,0,52.0,FINESTEERING,1992,332864.000,00000000,5b35,7053;1992,332863.996755000,-2.567459130,-5.558011118,182.422348097,INS_ALIGNMENT_COMPLETE*934a2f4a
#BESTPOSA,USB1,0,52.0,FINESTEERING,1992,332864.000,00000000,6145,7053;SOL_COMPUTED,SINGLE,37.87624873947,-122.30132640049,6.2509,-32.2000,WGS84,2.0885,1.7213,4.8363,"",0.000,0.000,8,7,0,0,0,06,0,03*4cfbacda
#BESTVELA,USB1,0,52.0,FINESTEERING,1992,332864.000,00000000,827b,7053;SOL_COMPUTED,DOPPLER_VELOCITY,0.150,0.000,4.3485,73.744827,0.1449,0.0*7420b813
#INSATTA,USB1,0,53.5,FINESTEERING,1992,332865.000,00000000,5b35,7053;1992,332864.996755000,-2.021936444,-5.056215529,185.593291638,INS_ALIGNMENT_COMPLETE*2cc91c3a
#BESTPOSA,USB1,0,53.5,FINESTEERING,1992,332865.000,00000000,6145,7053;SOL_COMPUTED,SINGLE,37.87626123993,-122.30127845927,6.3988,-32.2000,WGS84,2.0927,1.7228,4.8360,"",0.000,0.000,7,7,0,0,0,06,0,03*50f44de8
#BESTVELA,USB1,0,53.5,FINESTEERING,1992,332865.000,00000000,827b,7053;SOL_COMPUTED,DOPPLER_VELOCITY,0.150,0.000,4.5401,63.221934,0.3710,0.0*38199332
#INSATTA,USB1,0,49.0,FINESTEERING,1992,332866.000,00000000,5b35,7053;1992,332865.996755000,-1.339146873,-4.389187994,187.449149663,INS_ALIGNMENT_COMPLETE*b0f0bc32
#BESTPOSA,USB1,0,49.0,FINESTEERING,1992,332866.000,00000000,6145,7053;SOL_COMPUTED,SINGLE,37.87626874265,-122.30122447444,6.5049,-32.2000,WGS84,2.3882,1.7977,4.8394,"",0.000,0.000,6,6,0,0,0,06,0,03*dc724f9c
#BESTVELA,USB1,0,49.0,FINESTEERING,1992,332866.000,00000000,827b,7053;SOL_COMPUTED,DOPPLER_VELOCITY,0.150,0.000,4.9402,75.578263,0.2321,0.0*8d6b6509
#INSATTA,USB1,0,49.0,FINESTEERING,1992,332867.000,00000000,5b35,7053;1992,332866.996755000,-1.025810439,-4.076348932,188.049970508,INS_ALIGNMENT_COMPLETE*ecea710a
#BESTPOSA,USB1,0,49.0,FINESTEERING,1992,332867.000,00000000,6145,7053;SOL_COMPUTED,SINGLE,37.87629468104,-122.30117039651,5.8954,-32.2000,WGS84,2.2283,1.7467,5.1577,"",0.000,0.000,7,7,0,0,0,02,0,01*c12fe5f7
#BESTVELA,USB1,0,49.0,FINESTEERING,1992,332867.000,00000000,827b,7053;SOL_COMPUTED,DOPPLER_VELOCITY,0.150,0.000,5.1515,75.890815,-0.0010,0.0*2e1d43e7
#INSATTA,USB1,0,47.5,FINESTEERING,1992,332868.000,00000000,5b35,7053;1992,332867.996755000,-0.469572655,-4.093318540,186.561063264,INS_ALIGNMENT_COMPLETE*97d042cc
#BESTPOSA,USB1,0,47.5,FINESTEERING,1992,332868.000,00000000,6145,7053;SOL_COMPUTED,SINGLE,37.87630404765,-122.30111089780,6.0013,-32.2000,WGS84,2.4153,1.7557,4.9017,"",0.000,0.000,7,7,0,0,0,02,0,01*008890a4
#BESTVELA,USB1,0,47.5,FINESTEERING,1992,332868.000,00000000,827b,7053;SOL_COMPUTED,DOPPLER_VELOCITY,0.150,0.000,5.3813,76.843743,-0.0035,0.0*a82222dd
#INSATTA,USB1,0,46.5,FINESTEERING,1992,332869.000,00000000,5b35,7053;1992,332868.996755000,0.048166427,-4.520048084,183.419539655,INS_ALIGNMENT_COMPLETE*cfddd923
#BESTPOSA,USB1,0,46.5,FINESTEERING,1992,332869.000,00000000,6145,7053;SOL_COMPUTED,SINGLE,37.87631993511,-122.30105320660,5.2426,-32.2000,WGS84,1.9872,1.4993,4.1647,"",0.000,0.000,8,8,0,0,0,02,0,01*f60688b9
#BESTVELA,USB1,0,46.5,FINESTEERING,1992,332869.000,00000000,827b,7053;SOL_COMPUTED,DOPPLER_VELOCITY,0.150,0.000,5.7932,75.821202,0.2102,0.0*dadf4954
#INSATTA,USB1,0,46.5,FINESTEERING,1992,332870.000,00000000,5b35,7053;1992,332869.996755000,0.954511640,-4.068662441,180.817561220,INS_ALIGNMENT_COMPLETE*af138b5a
#BESTPOSA,USB1,0,46.5,FINESTEERING,1992,332870.000,00000000,6145,7053;SOL_COMPUTED,SINGLE,37.87633353222,-122.30099023513,5.1555,-32.2000,WGS84,1.9803,1.4946,4.1544,"",0.000,0.000,8,8,0,0,0,02,0,01*bc110edd
#BESTVELA,USB1,0,46.5,FINESTEERING,1992,332870.000,00000000,827b,7053;SOL_COMPUTED,DOPPLER_VELOCITY,0.150,0.000,6.0041,74.997514,0.0549,0.0*0bb39bf4
#INSATTA,USB1,0,49.5,FINESTEERING,1992,332871.000,00000000,5b35,7053;1992,332870.996755000,1.206869883,-4.234946225,178.708402263,INS_ALIGNMENT_COMPLETE*2d743973
#BESTPOSA,USB1,0,49.5,FINESTEERING,1992,332871.000,00000000,6145,7053;SOL_COMPUTED,SINGLE,37.87634481362,-122.30091880291,6.2183,-32.2000,WGS84,1.9717,1.4873,4.1352,"",0.000,0.000,8,8,0,0,0,02,0,01*bce1b24d
#BESTVELA,USB1,0,49.5,FINESTEERING,1992,332871.000,00000000,827b,7053;SOL_COMPUTED,DOPPLER_VELOCITY,0.150,0.000,6.4662,75.738019,-0.2395,0.0*cf963d91
#INSATTA,USB1,0,49.5,FINESTEERING,1992,332872.000,00000080,5b35,7053;1992,332871.996755000,1.267612091,-4.819403708,176.844473733,INS_ALIGNMENT_COMPLETE*4830d12b
#BESTPOSA,USB1,0,49.5,FINESTEERING,1992,332872.000,00000080,6145,7053;SOL_COMPUTED,SINGLE,37.87635770092,-122.30084315337,6.9400,-32.2000,WGS84,2.2150,1.7442,5.1588,"",0.000,0.000,7,7,0,0,0,02,0,01*8ade2aab
