#INSATTA,USB3,0,68.5,FINESTEERING,1992,236318.000,00000000,5b35,7053;1992,236317.996755000,0.000000000,0.000000000,0.000000000,INS_ALIGNING*8498a2b3
#BESTPOSA,USB3,0,68.5,FINESTEERING,1992,236318.000,00000000,6145,7053;SOL_COMPUTED,SINGLE,37.87519865634,-122.30338230283,11.6843,-32.2000,WGS84,2.6210,5.0064,6.0560,"",0.000,0.000,9,7,0,0,0,06,0,03*9d1a8977
#BESTVELA,USB3,0,68.5,FINESTEERING,1992,236318.000,00000000,827b,7053;SOL_COMPUTED,DOPPLER_VELOCITY,0.150,0.000,0.0212,107.458452,-0.0023,0.0*042fe272
#INSATTA,USB3,0,68.5,FINESTEERING,1992,236319.000,00000000,5b35,7053;1992,236318.996755000,0.000000000,0.000000000,0.000000000,INS_ALIGNING*1b7a6b4c
#BESTPOSA,USB3,0,68.5,FINESTEERING,1992,236319.000,00000000,6145,7053;SOL_COMPUTED,SINGLE,37.87519870154,-122.30338224794,11.6995,-32.2000,WGS84,2.6210,5.0055,6.0554,"",0.000,0.000,9,7,0,0,0,06,0,03*e5e459da
#BESTVELA,USB3,0,68.5,FINESTEERING,1992,236319.000,00000000,827b,7053;SOL_COMPUTED,DOPPLER_VELOCITY,0.150,0.000,0.0512,75.871826,-0.0663,0.0*ee19882c
#INSATTA,USB3,0,68.0,FINESTEERING,1992,236320.000,00000000,5b35,7053;1992,236319.996755000,0.000000000,0.000000000,0.000000000,INS_ALIGNING*30e52a8c
#BESTPOSA,USB3,0,68.0,FINESTEERING,1992,236320.000,00000000,6145,7053;SOL_COMPUTED,SINGLE,37.87519896199,-122.30338197233,11.6989,-32.2000,WGS84,2.6211,5.0045,6.0547,"",0.000,0.000,9,7,0,0,0,06,0,03*bd61c740
#BESTVELA,USB3,0,68.0,FINESTEERING,1992,236320.000,00000000,827b,7053;SOL_COMPUTED,DOPPLER_VELOCITY,0.150,0.000,0.0421,242.914606,0.0502,0.0*ffdd3b32
#INSATTA,USB3,0,68.0,FINESTEERING,1992,236321.000,00000000,5b35,7053;1992,236320.996755000,0.000000000,0.000000000,0.000000000,INS_ALIGNING*fa2a19d3
#BESTPOSA,USB3,0,68.0,FINESTEERING,1992,236321.000,00000000,6145,7053;SOL_COMPUTED,SINGLE,37.87519897026,-122.30338168179,11.6931,-32.2000,WGS84,2.6211,5.0035,6.0540,"",0.000,0.000,8,7,0,0,0,06,0,03*c6f70b38
#BESTVELA,USB3,0,68.0,FINESTEERING,1992,236321.000,00000000,827b,7053;SOL_COMPUTED,DOPPLER_VELOCITY,0.150,0.000,0.0189,250.940889,0.0479,0.0*025ec5bf
#INSATTA,USB3,0,70.0,FINESTEERING,1992,236322.000,00000000,5b35,7053;1992,236321.996755000,0.000000000,0.000000000,0.000000000,INS_ALIGNING*5ccc4c5d
#BESTPOSA,USB3,0,70.0,FINESTEERING,1992,236322.000,00000000,6145,7053;SOL_COMPUTED,SINGLE,37.87519914523,-122.30338081278,11.6233,-32.2000,WGS84,2.6212,5.0025,6.0532,"",0.000,0.000,9,7,0,0,0,06,0,03*ca9996ec
#BESTVELA,USB3,0,70.0,FINESTEERING,1992,236322.000,00000000,827b,7053;SOL_COMPUTED,DOPPLER_VELOCITY,0.150,0.000,0.0364,220.458936,0.0486,0.0*eee4e25b
#INSATTA,USB3,0,70.0,FINESTEERING,1992,236323.000,00000000,5b35,7053;1992,236322.996755000,0.000000000,0.000000000,0.000000000,INS_ALIGNING*beabd821
#BESTPOSA,USB3,0,70.0,FINESTEERING,1992,236323.000,00000000,6145,7053;SOL_COMPUTED,SINGLE,37.87519920546,-122.30338035494,11.5883,-32.2000,WGS84,2.6212,5.0015,6.0525,"",0.000,0.000,9,7,0,0,0,06,0,03*6fae3bf5
#BESTVELA,USB3,0,70.0,FINESTEERING,1992,236323.000,00000000,827b,7053;SOL_COMPUTED,DOPPLER_VELOCITY,0.150,0.000,0.0167,265.637661,-0.0172,0.0*1592be93
#INSATTA,USB3,0,70.5,FINESTEERING,1992,236324.000,00000000,5b35,7053;1992,236323.996755000,0.000000000,0.000000000,0.000000000,INS_ALIGNING*24810bad
#BESTPOSA,USB3,0,70.5,FINESTEERING,1992,236324.000,00000000,6145,7053;SOL_COMPUTED,SINGLE,37.87519939582,-122.30337966346,11.5355,-32.2000,WGS84,2.6213,5.0004,6.0516,"",0.000,0.000,9,7,0,0,0,06,0,03*51298cb1
#BESTVELA,USB3,0,70.5,FINESTEERING,1992,236324.000,00000000,827b,7053;SOL_COMPUTED,DOPPLER_VELOCITY,0.150,0.000,0.0127,306.265706,-0.0174,0.0*f2660d0c
#INSATTA,USB3,0,70.5,FINESTEERING,1992,236325.000,00000000,5b35,7053;1992,236324.996755000,0.000000000,0.000000000,0.000000000,INS_ALIGNING*5b4aa96f
#BESTPOSA,USB3,0,70.5,FINESTEERING,1992,236325.000,00000000,6145,7053;SOL_COMPUTED,SINGLE,37.87519957114,-122.30337928562,11.5385,-32.2000,WGS84,2.6213,4.9994,6.0507,"",0.000,0.000,8,7,0,0,0,06,0,03*e18d3dc5
#BESTVELA,USB3,0,70.5,FINESTEERING,1992,236325.000,00000000,827b,7053;SOL_COMPUTED,DOPPLER_VELOCITY,0.150,0.000,0.0363,87.150777,-0.0799,0.0*80eb4464
#INSATTA,USB3,0,72.0,FINESTEERING,1992,236326.000,00000000,5b35,7053;1992,236325.996755000,0.000000000,0.000000000,0.000000000,INS_ALIGNING*724f0caf
#BESTPOSA,USB3,0,72.0,FINESTEERING,1992,236326.000,00000000,6145,7053;SOL_COMPUTED,SINGLE,37.87519968602,-122.30337896688,11.5404,-32.2000,WGS84,2.6214,4.9985,6.0500,"",0.000,0.000,9,7,0,0,0,06,0,03*51a56f18
#BESTVELA,USB3,0,72.0,FINESTEERING,1992,236326.000,00000000,827b,7053;SOL_COMPUTED,DOPPLER_VELOCITY,0.150,0.000,0.0897,69.888538,-0.1194,0.0*0bbb9958
#INSATTA,USB3,0,71.5,FINESTEERING,1992,236327.000,00000000,5b35,7053;1992,236326.996755000,0.000000000,0.000000000,0.000000000,INS_ALIGNING*4c0b0916
#BESTPOSA,USB3,0,71.5,FINESTEERING,1992,236327.000,00000000,6145,7053;SOL_COMPUTED,SINGLE,37.87519966735,-122.30337869580,11.5411,-32.2000,WGS84,2.6214,4.9975,6.0494,"",0.000,0.000,9,7,0,0,0,06,0,03*fba7472c
#BESTVELA,USB3,0,71.5,FINESTEERING,1992,236327.000,00000000,827b,7053;SOL_COMPUTED,DOPPLER_VELOCITY,0.150,0.000,0.0765,242.115921,0.0646,0.0*e2110c2a
#INSATTA,USB3,0,68.5,FINESTEERING,1992,236328.000,00000000,5b35,7053;1992,236327.996755000,0.000000000,0.000000000,0.000000000,INS_ALIGNING*b8b5e5f5
#BESTPOSA,USB3,0,68.5,FINESTEERING,1992,236328.000,00000000,6145,7053;SOL_COMPUTED,SINGLE,37.87519969333,-122.30337824025,11.4988,-32.2000,WGS84,2.6215,4.9964,6.0482,"",0.000,0.000,9,7,0,0,0,06,0,03*c05d4576
#BESTVELA,USB3,0,68.5,FINESTEERING,1992,236328.000,00000000,827b,7053;SOL_COMPUTED,DOPPLER_VELOCITY,0.150,0.000,0.0466,64.972797,-0.0254,0.0*9c340efe
#INSATTA,USB3,0,68.5,FINESTEERING,1992,236329.000,00000000,5b35,7053;1992,236328.996755000,0.000000000,0.000000000,0.000000000,INS_ALIGNING*27572c0a
#BESTPOSA,USB3,0,68.5,FINESTEERING,1992,236329.000,00000000,6145,7053;SOL_COMPUTED,SINGLE,37.87519977889,-122.30337784514,11.5090,-32.2000,WGS84,2.6215,4.9954,6.0476,"",0.000,0.000,8,7,0,0,0,06,0,03*9ce166c0
#BESTVELA,USB3,0,68.5,FINESTEERING,1992,236329.000,00000000,827b,7053;SOL_COMPUTED,DOPPLER_VELOCITY,0.150,0.000,0.0692,248.352923,0.0849,0.0*5274d6be
#INSATTA,USB3,0,70.5,FINESTEERING,1992,236330.000,00000000,5b35,7053;1992,236329.996755000,0.000000000,0.000000000,0.000000000,INS_ALIGNING*1781f6fc
#BESTPOSA,USB3,0,70.5,FINESTEERING,1992,236330.000,00000000,6145,7053;SOL_COMPUTED,SINGLE,37.87519985709,-122.30337761896,11.5115,-32.2000,WGS84,2.6216,4.9944,6.0468,"",0.000,0.000,8,7,0,0,0,06,0,03*ebd7270f
#BESTVELA,USB3,0,70.5,FINESTEERING,1992,236330.000,00000000,827b,7053;SOL_COMPUTED,DOPPLER_VELOCITY,0.150,0.000,0.0634,63.357027,-0.0466,0.0*83995b29
#INSATTA,USB3,0,70.5,FINESTEERING,1992,236331.000,00000000,5b35,7053;1992,236330.996755000,0.000000000,0.000000000,0.000000000,INS_ALIGNING*26d45fdd
#BESTPOSA,USB3,0,70.5,FINESTEERING,1992,236331.000,00000000,6145,7053;SOL_COMPUTED,SINGLE,37.87519988262,-122.30337751187,11.5236,-32.2000,WGS84,2.6216,4.9935,6.0463,"",0.000,0.000,9,7,0,0,0,06,0,03*1fc3582a
#BESTVELA,USB3,0,70.5,FINESTEERING,1992,236331.000,00000000,827b,7053;SOL_COMPUTED,DOPPLER_VELOCITY,0.150,0.000,0.0240,4.379665,-0.0084,0.0*dc866b9f
#INSATTA,USB3,0,68.5,FINESTEERING,1992,236332.000,00000000,5b35,7053;1992,236331.996755000,0.000000000,0.000000000,0.000000000,INS_ALIGNING*80320a53
#BESTPOSA,USB3,0,68.5,FINESTEERING,1992,236332.000,00000000,6145,7053;SOL_COMPUTED,SINGLE,37.87519988703,-122.30337775993,11.5704,-32.2000,WGS84,2.6216,4.9927,6.0464,"",0.000,0.000,8,7,0,0,0,06,0,03*1fd722f2
#BESTVELA,USB3,0,68.5,FINESTEERING,1992,236332.000,00000000,827b,7053;SOL_COMPUTED,DOPPLER_VELOCITY,0.150,0.000,0.0238,281.933695,0.0059,0.0*cc628cfb
#INSATTA,USB3,0,68.5,FINESTEERING,1992,236333.000,00000000,5b35,7053;1992,236332.996755000,0.000000000,0.000000000,0.000000000,INS_ALIGNING*62559e2f
#BESTPOSA,USB3,0,68.5,FINESTEERING,1992,236333.000,00000000,6145,7053;SOL_COMPUTED,SINGLE,37.87520040326,-122.30337803062,11.5718,-32.2000,WGS84,2.6216,4.9914,6.0455,"",0.000,0.000,8,7,0,0,0,06,0,03*cea43218
#BESTVELA,USB3,0,68.5,FINESTEERING,1992,236333.000,00000000,827b,7053;SOL_COMPUTED,DOPPLER_VELOCITY,0.150,0.000,0.2122,351.602987,-0.0255,0.0*7085af0d
#INSATTA,USB3,0,69.0,FINESTEERING,1992,236334.000,00000000,5b35,7053;1992,236333.996755000,0.000000000,0.000000000,0.000000000,INS_ALIGNING*6d2cf5dd
#BESTPOSA,USB3,0,69.0,FINESTEERING,1992,236334.000,00000000,6145,7053;SOL_COMPUTED,SINGLE,37.87520492774,-122.30338052262,11.5387,-32.2000,WGS84,2.6233,4.9914,6.0464,"",0.000,0.000,9,7,0,0,0,06,0,03*ce481ef1
#BESTVELA,USB3,0,69.0,FINESTEERING,1992,236334.000,00000000,827b,7053;SOL_COMPUTED,DOPPLER_VELOCITY,0.150,0.000,0.6127,334.040405,-0.5730,0.0*5b9f677b
#INSATTA,USB3,0,68.5,FINESTEERING,1992,236335.000,00000000,5b35,7053;1992,236334.996755000,0.000000000,0.000000000,0.000000000,INS_ALIGNING*3f12b067
#BESTPOSA,USB3,0,68.5,FINESTEERING,1992,236335.000,00000000,6145,7053;SOL_COMPUTED,SINGLE,37.87521270504,-122.30340262294,13.5648,-32.2000,WGS84,2.6224,5.5806,7.6881,"",0.000,0.000,7,6,0,0,0,06,0,03*63b1706c
#BESTVELA,USB3,0,68.5,FINESTEERING,1992,236335.000,00000000,827b,7053;SOL_COMPUTED,DOPPLER_VELOCITY,0.150,0.000,1.4659,322.421349,-0.3931,0.0*bafc6dd2
#INSATTA,USB3,0,67.5,FINESTEERING,1992,236336.000,00000000,5b35,7053;1992,236335.996755000,3.946975391,-12.096969113,312.000514709,INS_ALIGNMENT_COMPLETE*3e98f530
#BESTPOSA,USB3,0,67.5,FINESTEERING,1992,236336.000,00000000,6145,7053;SOL_COMPUTED,SINGLE,37.87522251758,-122.30338632765,8.6861,-32.2000,WGS84,1.9163,2.0044,4.4839,"",0.000,0.000,8,7,0,0,0,02,0,01*f79b7109
#BESTVELA,USB3,0,67.5,FINESTEERING,1992,236336.000,00000000,827b,7053;SOL_COMPUTED,DOPPLER_VELOCITY,0.150,0.000,1.5610,313.463535,0.0714,0.0*d6d69a49
#INSATTA,USB3,0,67.5,FINESTEERING,1992,236337.000,00000000,5b35,7053;1992,236336.996755000,2.869260160,-12.357934700,313.003029998,INS_ALIGNMENT_COMPLETE*002006f8
#BESTPOSA,USB3,0,67.5,FINESTEERING,1992,236337.000,00000000,6145,7053;SOL_COMPUTED,SINGLE,37.87523329084,-122.30339883306,8.3393,-32.2000,WGS84,1.7117,1.7227,3.8050,"",0.000,0.000,9,9,0,0,0,02,0,01*059be660
#BESTVELA,USB3,0,67.5,FINESTEERING,1992,236337.000,00000000,827b,7053;SOL_COMPUTED,DOPPLER_VELOCITY,0.150,0.000,2.1650,320.851083,0.1502,0.0*7a2f718e
#INSATTA,USB3,0,62.5,FINESTEERING,1992,236338.000,00000000,5b35,7053;1992,236337.996755000,-2.780690670,-15.144206234,325.238901830,INS_ALIGNMENT_COMPLETE*baa65818
#BESTPOSA,USB3,0,62.5,FINESTEERING,1992,236338.000,00000000,6145,7053;SOL_COMPUTED,SINGLE,37.87525463081,-122.30341005386,7.7766,-32.2000,WGS84,2.1472,2.6330,4.5578,"",0.000,0.000,9,8,0,0,0,02,0,01*f6bbcea6
#BESTVELA,USB3,0,62.5,FINESTEERING,1992,236338.000,00000000,827b,7053;SOL_COMPUTED,DOPPLER_VELOCITY,0.150,0.000,2.8314,331.056531,0.0203,0.0*4bfcec55
#INSATTA,USB3,0,62.5,FINESTEERING,1992,236339.000,00000000,5b35,7053;1992,236338.996755000,-7.276835011,-14.911440751,338.337275647,INS_ALIGNMENT_COMPLETE*963a2565
#BESTPOSA,USB3,0,62.5,FINESTEERING,1992,236339.000,00000000,6145,7053;SOL_COMPUTED,SINGLE,37.87527600366,-122.30343088999,8.1341,-32.2000,WGS84,1.7054,1.9810,3.8349,"",0.000,0.000,8,8,0,0,0,02,0,01*bbc1ba2a
#BESTVELA,USB3,0,62.5,FINESTEERING,1992,236339.000,00000000,827b,7053;SOL_COMPUTED,DOPPLER_VELOCITY,0.150,0.000,3.2675,344.051218,0.0461,0.0*0a8e9028
#INSATTA,USB3,0,67.5,FINESTEERING,1992,236340.000,00000000,5b35,7053;1992,236339.996755000,-10.272995129,-13.491978503,349.305768085,INS_ALIGNMENT_COMPLETE*89a8c219
#BESTPOSA,USB3,0,67.5,FINESTEERING,1992,236340.000,00000000,6145,7053;SOL_COMPUTED,SINGLE,37.87530658685,-122.30343739436,8.0062,-32.2000,WGS84,1.7038,1.7272,3.7841,"",0.000,0.000,9,9,0,0,0,02,0,01*47ee85d1
#BESTVELA,USB3,0,67.5,FINESTEERING,1992,236340.000,00000000,827b,7053;SOL_COMPUTED,DOPPLER_VELOCITY,0.150,0.000,3.5557,354.548800,-0.1807,0.0*db207d17
#INSATTA,USB3,0,65.0,FINESTEERING,1992,236341.000,00000000,5b35,7053;1992,236340.996755000,-12.501244251,-11.791109846,358.284393166,INS_ALIGNMENT_COMPLETE*4e44f31f
#BESTPOSA,USB3,0,65.0,FINESTEERING,1992,236341.000,00000000,6145,7053;SOL_COMPUTED,SINGLE,37.87534071998,-122.30343962825,7.9776,-32.2000,WGS84,1.7018,1.9804,3.8243,"",0.000,0.000,8,8,0,0,0,02,0,01*d50a55b4
#BESTVELA,USB3,0,65.0,FINESTEERING,1992,236341.000,00000000,827b,7053;SOL_COMPUTED,DOPPLER_VELOCITY,0.150,0.000,4.1449,2.794875,-0.0056,0.0*f8f079c3
#INSATTA,USB3,0,57.5,FINESTEERING,1992,236342.000,00000000,5b35,7053;1992,236341.996755000,-5.295194331,0.592352019,4.412559009,INS_ALIGNMENT_COMPLETE*71e86f77
#BESTPOSA,USB3,0,57.5,FINESTEERING,1992,236342.000,00000000,6145,7053;SOL_COMPUTED,SINGLE,37.87537725814,-122.30343537262,8.3274,-32.2000,WGS84,1.7008,1.9802,3.8212,"",0.000,0.000,9,8,0,0,0,02,0,01*7974568c
#BESTVELA,USB3,0,57.5,FINESTEERING,1992,236342.000,00000000,827b,7053;SOL_COMPUTED,DOPPLER_VELOCITY,0.150,0.000,3.5620,5.737438,-0.3028,0.0*57c818c3
#INSATTA,USB3,0,57.5,FINESTEERING,1992,236343.000,00000000,5b35,7053;1992,236342.996755000,-2.598625439,6.484483701,348.850998001,INS_ALIGNMENT_COMPLETE*9d9706ac
#BESTPOSA,USB3,0,57.5,FINESTEERING,1992,236343.000,00000000,6145,7053;SOL_COMPUTED,SINGLE,37.87540411317,-122.30343710890,8.0484,-32.2000,WGS84,1.6999,1.7519,3.7779,"",0.000,0.000,9,9,0,0,0,02,0,01*388adc50
#BESTVELA,USB3,0,57.5,FINESTEERING,1992,236343.000,00000000,827b,7053;SOL_COMPUTED,DOPPLER_VELOCITY,0.150,0.000,2.7768,341.274210,0.1705,0.0*69bfe337
#INSATTA,USB3,0,58.5,FINESTEERING,1992,236344.000,00000000,5b35,7053;1992,236343.996755000,-1.275136199,-2.284475495,322.705084707,INS_ALIGNMENT_COMPLETE*68e2baa6
#BESTPOSA,USB3,0,58.5,FINESTEERING,1992,236344.000,00000000,6145,7053;SOL_COMPUTED,SINGLE,37.87543002691,-122.30342358981,7.4480,-32.2000,WGS84,2.0882,2.6094,4.9057,"",0.000,0.000,9,7,0,0,0,06,0,03*8ed05a1a
#BESTVELA,USB3,0,58.5,FINESTEERING,1992,236344.000,00000000,827b,7053;SOL_COMPUTED,DOPPLER_VELOCITY,0.150,0.000,2.0203,310.787853,-0.0990,0.0*806e9d01
#INSATTA,USB3,0,59.0,FINESTEERING,1992,236345.000,00000000,5b35,7053;1992,236344.996755000,2.093927081,-4.222754800,297.099603149,INS_ALIGNMENT_COMPLETE*0c8262a5
#BESTPOSA,USB3,0,59.0,FINESTEERING,1992,236345.000,00000000,6145,7053;SOL_COMPUTED,SINGLE,37.87543702985,-122.30344581943,7.7305,-32.2000,WGS84,2.0848,2.5790,4.8846,"",0.000,0.000,9,7,0,0,0,06,0,03*ee61a43d
#BESTVELA,USB3,0,59.0,FINESTEERING,1992,236345.000,00000000,827b,7053;SOL_COMPUTED,DOPPLER_VELOCITY,0.150,0.000,1.5554,287.688400,-0.0164,0.0*7aeaf9b3
#INSATTA,USB3,0,61.5,FINESTEERING,1992,236346.000,00000000,5b35,7053;1992,236345.996755000,-3.411619341,-1.978472755,280.791491110,INS_ALIGNMENT_COMPLETE*ca8162ab
#BESTPOSA,USB3,0,61.5,FINESTEERING,1992,236346.000,00000000,6145,7053;SOL_COMPUTED,SINGLE,37.87543728560,-122.30346218785,7.8344,-32.2000,WGS84,2.0830,2.5645,4.8750,"",0.000,0.000,9,7,0,0,0,06,0,03*908caae9
#BESTVELA,USB3,0,61.5,FINESTEERING,1992,236346.000,00000000,827b,7053;SOL_COMPUTED,DOPPLER_VELOCITY,0.150,0.000,1.1019,264.067580,-0.0436,0.0*2e4f9676
#INSATTA,USB3,0,61.5,FINESTEERING,1992,236347.000,00000000,5b35,7053;1992,236346.996755000,-2.057759165,-1.594046790,271.401540507,INS_ALIGNMENT_COMPLETE*76f74426
#BESTPOSA,USB3,0,61.5,FINESTEERING,1992,236347.000,00000000,6145,7053;SOL_COMPUTED,SINGLE,37.87543606182,-122.30347098607,7.9530,-32.2000,WGS84,2.0799,2.5383,4.8571,"",0.000,0.000,9,7,0,0,0,06,0,03*f321ea45
#BESTVELA,USB3,0,61.5,FINESTEERING,1992,236347.000,00000000,827b,7053;SOL_COMPUTED,DOPPLER_VELOCITY,0.150,0.000,0.3425,252.985777,-0.0497,0.0*3504a5b9
#INSATTA,USB3,0,56.0,FINESTEERING,1992,236348.000,00000000,5b35,7053;1992,236347.996755000,0.881175735,-2.289211912,270.037028748,INS_ALIGNMENT_COMPLETE*39cc3f01
#BESTPOSA,USB3,0,56.0,FINESTEERING,1992,236348.000,00000000,6145,7053;SOL_COMPUTED,SINGLE,37.87543659050,-122.30346924846,7.6767,-32.2000,WGS84,2.0784,2.5250,4.8485,"",0.000,0.000,9,7,0,0,0,06,0,03*efa79022
#BESTVELA,USB3,0,56.0,FINESTEERING,1992,236348.000,00000000,827b,7053;SOL_COMPUTED,DOPPLER_VELOCITY,0.150,0.000,0.0331,346.937927,-0.0730,0.0*d581a786
#INSATTA,USB3,0,56.0,FINESTEERING,1992,236349.000,00000000,5b35,7053;1992,236348.996755000,0.111655156,-2.006232409,270.426567215,INS_ALIGNMENT_COMPLETE*3dc691b4
#BESTPOSA,USB3,0,56.0,FINESTEERING,1992,236349.000,00000000,6145,7053;SOL_COMPUTED,SINGLE,37.87543624687,-122.30346990987,7.7895,-32.2000,WGS84,2.0762,2.5056,4.8356,"",0.000,0.000,9,7,0,0,0,06,0,03*3d03fb6a
#BESTVELA,USB3,0,56.0,FINESTEERING,1992,236349.000,00000000,827b,7053;SOL_COMPUTED,DOPPLER_VELOCITY,0.150,0.000,0.1948,84.762095,-0.0152,0.0*fe14b9bf
#INSATTA,USB3,0,61.0,FINESTEERING,1992,236350.000,00000000,5b35,7053;1992,236349.996755000,-1.115797809,-1.461803074,269.358928307,INS_ALIGNMENT_COMPLETE*52eb31a9
#BESTPOSA,USB3,0,61.0,FINESTEERING,1992,236350.000,00000000,6145,7053;SOL_COMPUTED,SINGLE,37.87543559672,-122.30346751623,7.8535,-32.2000,WGS84,2.0748,2.4941,4.8283,"",0.000,0.000,9,7,0,0,0,06,0,03*59b56719
#BESTVELA,USB3,0,61.0,FINESTEERING,1992,236350.000,00000000,827b,7053;SOL_COMPUTED,DOPPLER_VELOCITY,0.150,0.000,0.4632,103.785902,0.0202,0.0*7105676b
#INSATTA,USB3,0,60.5,FINESTEERING,1992,236351.000,00000000,5b35,7053;1992,236350.996755000,-0.169450372,-1.113372221,265.263319131,INS_ALIGNMENT_COMPLETE*5eb83914
#BESTPOSA,USB3,0,60.5,FINESTEERING,1992,236351.000,00000000,6145,7053;SOL_COMPUTED,SINGLE,37.87543045784,-122.30346398080,7.1304,-32.2000,WGS84,1.9332,2.4573,4.2836,"",0.000,0.000,9,8,0,0,0,06,0,03*401959b4
#BESTVELA,USB3,0,60.5,FINESTEERING,1992,236351.000,00000000,827b,7053;SOL_COMPUTED,DOPPLER_VELOCITY,0.150,0.000,0.7128,99.405237,-0.0006,0.0*f4bb0827
#INSATTA,USB3,0,60.5,FINESTEERING,1992,236352.000,00000000,5b35,7053;1992,236351.996755000,-0.733650121,-0.249959030,254.793613697,INS_ALIGNMENT_COMPLETE*ff8bb555
#BESTPOSA,USB3,0,60.5,FINESTEERING,1992,236352.000,00000000,6145,7053;SOL_COMPUTED,SINGLE,37.87541739747,-122.30349348764,10.4367,-32.2000,WGS84,2.5460,4.9843,6.0880,"",0.000,0.000,9,7,0,0,0,06,0,03*723c38f5
#BESTVELA,USB3,0,60.5,FINESTEERING,1992,236352.000,00000000,827b,7053;SOL_COMPUTED,DOPPLER_VELOCITY,0.150,0.000,0.7218,95.144536,0.0891,0.0*98f8a998
#INSATTA,USB3,0,57.0,FINESTEERING,1992,236353.000,00000000,5b35,7053;1992,236352.996755000,-0.068288843,-0.460599086,244.355093032,INS_ALIGNMENT_COMPLETE*c5a87601
#BESTPOSA,USB3,0,57.0,FINESTEERING,1992,236353.000,00000000,6145,7053;SOL_COMPUTED,SINGLE,37.87542020971,-122.30347672302,9.6268,-32.2000,WGS84,1.5905,1.9735,3.7101,"",0.000,0.000,9,8,0,0,0,06,0,03*c254f736
#BESTVELA,USB3,0,57.0,FINESTEERING,1992,236353.000,00000000,827b,7053;SOL_COMPUTED,DOPPLER_VELOCITY,0.150,0.000,0.7883,86.176471,0.0746,0.0*ee9243ca
#INSATTA,USB3,0,57.0,FINESTEERING,1992,236354.000,00000000,5b35,7053;1992,236353.996755000,-0.954300186,-0.476617782,233.429196020,INS_ALIGNMENT_COMPLETE*7605aa86
#BESTPOSA,USB3,0,57.0,FINESTEERING,1992,236354.000,00000000,6145,7053;SOL_COMPUTED,SINGLE,37.87542151600,-122.30346785587,9.6066,-32.2000,WGS84,1.5902,1.9734,3.7093,"",0.000,0.000,9,8,0,0,0,06,0,03*dfae1a72
#BESTVELA,USB3,0,57.0,FINESTEERING,1992,236354.000,00000000,827b,7053;SOL_COMPUTED,DOPPLER_VELOCITY,0.150,0.000,0.6862,75.822454,-0.0171,0.0*8706fa8b
#INSATTA,USB3,0,59.0,FINESTEERING,1992,236355.000,00000000,5b35,7053;1992,236354.996755000,-1.062194478,-0.530238563,228.812830149,INS_ALIGNMENT_COMPLETE*a58f16a8
#BESTPOSA,USB3,0,59.0,FINESTEERING,1992,236355.000,00000000,6145,7053;SOL_COMPUTED,SINGLE,37.87542262381,-122.30346417718,9.5455,-32.2000,WGS84,1.5899,1.9732,3.7084,"",0.000,0.000,9,8,0,0,0,06,0,03*fffbee7c
#BESTVELA,USB3,0,59.0,FINESTEERING,1992,236355.000,00000000,827b,7053;SOL_COMPUTED,DOPPLER_VELOCITY,0.150,0.000,0.0671,225.579126,-0.0362,0.0*0ac0858c
#INSATTA,USB3,0,59.0,FINESTEERING,1992,236356.000,00000000,5b35,7053;1992,236355.996755000,-1.280185198,0.066745568,228.542180084,INS_ALIGNMENT_COMPLETE*85f2a999
#BESTPOSA,USB3,0,59.0,FINESTEERING,1992,236356.000,00000000,6145,7053;SOL_COMPUTED,SINGLE,37.87542269643,-122.30346443464,9.4678,-32.2000,WGS84,1.5898,1.9730,3.7082,"",0.000,0.000,9,8,0,0,0,06,0,03*80df94a6
#BESTVELA,USB3,0,59.0,FINESTEERING,1992,236356.000,00000000,827b,7053;SOL_COMPUTED,DOPPLER_VELOCITY,0.150,0.000,0.1016,229.914041,-0.0149,0.0*4b572e2f
#INSATTA,USB3,0,59.0,FINESTEERING,1992,236357.000,00000000,5b35,7053;1992,236356.996755000,-1.233580788,0.355547810,226.850612333,INS_ALIGNMENT_COMPLETE*f5e36b52
#BESTPOSA,USB3,0,59.0,FINESTEERING,1992,236357.000,00000000,6145,7053;SOL_COMPUTED,SINGLE,37.87542177850,-122.30346203711,9.1845,-32.2000,WGS84,1.5891,1.7278,3.6589,"",0.000,0.000,9,9,0,0,0,06,0,03*98143a0b
#BESTVELA,USB3,0,59.0,FINESTEERING,1992,236357.000,00000000,827b,7053;SOL_COMPUTED,DOPPLER_VELOCITY,0.150,0.000,0.4108,223.401412,-0.0188,0.0*1bcc7c15
#INSATTA,USB3,0,53.5,FINESTEERING,1992,236358.000,00000000,5b35,7053;1992,236357.996755000,0.424938570,0.243720391,216.515661250,INS_ALIGNMENT_COMPLETE*d99e3926
#BESTPOSA,USB3,0,53.5,FINESTEERING,1992,236358.000,00000000,6145,7053;SOL_COMPUTED,SINGLE,37.87541614563,-122.30346727419,9.1577,-32.2000,WGS84,1.5891,1.7269,3.6590,"",0.000,0.000,9,9,0,0,0,06,0,03*1e57359a
#BESTVELA,USB3,0,53.5,FINESTEERING,1992,236358.000,00000000,827b,7053;SOL_COMPUTED,DOPPLER_VELOCITY,0.150,0.000,1.2298,205.935002,-0.0390,0.0*0b8cf085
#INSATTA,USB3,0,53.5,FINESTEERING,1992,236359.000,00000000,5b35,7053;1992,236358.996755000,0.021536042,-0.084885877,194.503739979,INS_ALIGNMENT_COMPLETE*b183e961
#BESTPOSA,USB3,0,53.5,FINESTEERING,1992,236359.000,00000000,6145,7053;SOL_COMPUTED,SINGLE,37.87540635721,-122.30347456807,10.5993,-32.2000,WGS84,1.7831,1.7446,4.2278,"",0.000,0.000,8,8,0,0,0,06,0,03*4928d300
#BESTVELA,USB3,0,53.5,FINESTEERING,1992,236359.000,00000000,827b,7053;SOL_COMPUTED,DOPPLER_VELOCITY,0.150,0.000,2.0647,188.461521,0.2058,0.0*669ca48c
#INSATTA,USB3,0,59.5,FINESTEERING,1992,236360.000,00000000,5b35,7053;1992,236359.996755000,1.986437324,-0.366843752,174.770003385,INS_SOLUTION_GOOD*d5196305
#BESTPOSA,USB3,0,59.5,FINESTEERING,1992,236360.000,00000000,6145,7053;SOL_COMPUTED,SINGLE,37.87538339039,-122.30347618896,10.5630,-32.2000,WGS84,1.7846,1.7443,4.2304,"",0.000,0.000,8,8,0,0,0,06,0,03*a4031bf3
#BESTVELA,USB3,0,59.5,FINESTEERING,1992,236360.000,00000000,827b,7053;SOL_COMPUTED,DOPPLER_VELOCITY,0.150,0.000,2.6974,173.755644,0.2074,0.0*a63c16b1
#INSATTA,USB3,0,59.5,FINESTEERING,1992,236361.000,00000000,5b35,7053;1992,236360.996755000,1.661921098,0.036359655,159.896585265,INS_SOLUTION_GOOD*1de64625
#BESTPOSA,USB3,0,59.5,FINESTEERING,1992,236361.000,00000000,6145,7053;SOL_COMPUTED,INS_PSRSP,37.87535709141,-122.30345936723,9.0227,-32.2000,WGS84,0.4592,0.5592,1.0253,"",0.000,0.000,8,8,0,0,0,06,0,03*ba1eded1
#BESTVELA,USB3,0,59.5,FINESTEERING,1992,236361.000,00000000,827b,7053;SOL_COMPUTED,INS_PSRSP,0.000,0.000,2.8152,163.949862,0.0416,0.0*946b5102
#INSATTA,USB3,0,59.5,FINESTEERING,1992,236362.000,00000000,5b35,7053;1992,236361.996755000,1.870546596,0.888310478,155.437367876,INS_SOLUTION_GOOD*ac6627e1
#BESTPOSA,USB3,0,59.5,FINESTEERING,1992,236362.000,00000000,6145,7053;SOL_COMPUTED,INS_PSRSP,37.87533407403,-122.30345288947,9.1198,-32.2000,WGS84,0.4512,0.5430,0.9957,"",0.000,0.000,9,7,0,0,0,06,0,03*e18a26bf
#BESTVELA,USB3,0,59.5,FINESTEERING,1992,236362.000,00000000,827b,7053;SOL_COMPUTED,INS_PSRSP,0.000,0.000,2.7982,166.067829,0.0316,0.0*b6884fa5
#INSATTA,USB3,0,58.5,FINESTEERING,1992,236363.000,00000000,5b35,7053;1992,236362.996755000,1.097151178,1.087614262,154.257682190,INS_SOLUTION_GOOD*ff0f71b6
#BESTPOSA,USB3,0,58.5,FINESTEERING,1992,236363.000,00000000,6145,7053;SOL_COMPUTED,INS_PSRSP,37.87530965553,-122.30344526311,9.1985,-32.2000,WGS84,0.4460,0.5207,0.9710,"",0.000,0.000,7,6,0,0,0,06,0,03*c475af36
#BESTVELA,USB3,0,58.5,FINESTEERING,1992,236363.000,00000000,827b,7053;SOL_COMPUTED,INS_PSRSP,0.000,0.000,2.8234,165.375392,0.0432,0.0*03219947
#INSATTA,USB3,0,58.5,FINESTEERING,1992,236364.000,00000000,5b35,7053;1992,236363.996755000,0.256182147,1.198225718,154.710511730,INS_SOLUTION_GOOD*dcbecf89
#BESTPOSA,USB3,0,58.5,FINESTEERING,1992,236364.000,00000000,6145,7053;SOL_COMPUTED,INS_PSRSP,37.87528548380,-122.30343482043,9.1086,-32.2000,WGS84,0.4301,0.4995,0.9489,"",0.000,0.000,7,7,0,0,0,02,0,01*5c4acde5
#BESTVELA,USB3,0,58.5,FINESTEERING,1992,236364.000,00000000,827b,7053;SOL_COMPUTED,INS_PSRSP,0.000,0.000,2.8852,163.426241,0.0216,0.0*3edf53b7
#INSATTA,USB3,0,60.5,FINESTEERING,1992,236365.000,00000000,5b35,7053;1992,236364.996755000,-0.640032148,0.538062272,155.103640816,INS_SOLUTION_GOOD*3d020d19
#BESTPOSA,USB3,0,60.5,FINESTEERING,1992,236365.000,00000000,6145,7053;SOL_COMPUTED,INS_PSRSP,37.87526048881,-122.30342401144,9.0116,-32.2000,WGS84,0.4248,0.4883,0.9347,"",0.000,0.000,8,7,0,0,0,02,0,01*552df436
#BESTVELA,USB3,0,60.5,FINESTEERING,1992,236365.000,00000000,827b,7053;SOL_COMPUTED,INS_PSRSP,0.000,0.000,2.9730,162.950453,0.0301,0.0*4a48870c
#INSATTA,USB3,0,58.0,FINESTEERING,1992,236366.000,00000000,5b35,7053;1992,236365.996755000,-1.718317493,-0.270033707,155.097304478,INS_SOLUTION_GOOD*ac43de08
#BESTPOSA,USB3,0,58.0,FINESTEERING,1992,236366.000,00000000,6145,7053;SOL_COMPUTED,INS_PSRSP,37.87523490919,-122.30341285139,8.9265,-32.2000,WGS84,0.4202,0.4776,0.9227,"",0.000,0.000,8,8,0,0,0,02,0,01*7e86fe8d
#BESTVELA,USB3,0,58.0,FINESTEERING,1992,236366.000,00000000,827b,7053;SOL_COMPUTED,INS_PSRSP,0.000,0.000,3.0743,161.506057,-0.0437,0.0*3d2c06c8
#INSATTA,USB3,0,54.0,FINESTEERING,1992,236367.000,00000000,5b35,7053;1992,236366.996755000,-3.203438478,0.285000121,154.774935524,INS_SOLUTION_GOOD*170defc5
#BESTPOSA,USB3,0,54.0,FINESTEERING,1992,236367.000,00000000,6145,7053;SOL_COMPUTED,INS_PSRSP,37.87520883080,-122.30340116441,8.8381,-32.2000,WGS84,0.4071,0.4645,0.9031,"",0.000,0.000,9,9,0,0,0,02,0,01*35429d9b
#BESTVELA,USB3,0,54.0,FINESTEERING,1992,236367.000,00000000,827b,7053;SOL_COMPUTED,INS_PSRSP,0.000,0.000,3.1192,160.244978,-0.0156,0.0*8874fd46
#INSATTA,USB3,0,54.0,FINESTEERING,1992,236368.000,00000000,5b35,7053;1992,236367.996755000,-1.691368927,-0.053078932,154.585624051,INS_SOLUTION_GOOD*05537284
#BESTPOSA,USB3,0,54.0,FINESTEERING,1992,236368.000,00000000,6145,7053;SOL_COMPUTED,INS_PSRSP,37.87518323281,-122.30339004374,8.7894,-32.2000,WGS84,0.4014,0.4556,0.8881,"",0.000,0.000,9,9,0,0,0,02,0,01*9b10cb09
#BESTVELA,USB3,0,54.0,FINESTEERING,1992,236368.000,00000000,827b,7053;SOL_COMPUTED,INS_PSRSP,0.000,0.000,3.1390,161.317966,-0.0347,0.0*65d9cf3e
#INSATTA,USB3,0,59.0,FINESTEERING,1992,236369.000,00000000,5b35,7053;1992,236368.996755000,-1.215745988,0.727194613,154.929462777,INS_SOLUTION_GOOD*e56566b7
#BESTPOSA,USB3,0,59.0,FINESTEERING,1992,236369.000,00000000,6145,7053;SOL_COMPUTED,INS_PSRSP,37.87515348242,-122.30337969106,8.7499,-32.2000,WGS84,0.3953,0.4426,0.8684,"",0.000,0.000,9,9,0,0,0,02,0,01*06477b9e
#BESTVELA,USB3,0,59.0,FINESTEERING,1992,236369.000,00000000,827b,7053;SOL_COMPUTED,INS_PSRSP,0.000,0.000,3.9553,163.570961,0.0242,0.0*25819155
#INSATTA,USB3,0,59.0,FINESTEERING,1992,236370.000,00000000,5b35,7053;1992,236369.996755000,-0.798093746,0.762375044,155.944211890,INS_SOLUTION_GOOD*04f11cb7
#BESTPOSA,USB3,0,59.0,FINESTEERING,1992,236370.000,00000000,6145,7053;SOL_COMPUTED,INS_PSRSP,37.87511505201,-122.30336644903,8.6949,-32.2000,WGS84,0.3829,0.4303,0.8453,"",0.000,0.000,8,8,0,0,0,02,0,01*0c772792
#BESTVELA,USB3,0,59.0,FINESTEERING,1992,236370.000,00000000,827b,7053;SOL_COMPUTED,INS_PSRSP,0.000,0.000,4.8833,164.886403,0.0141,0.0*9d297adc
#INSATTA,USB3,0,59.5,FINESTEERING,1992,236371.000,00000000,5b35,7053;1992,236370.996755000,-0.889068217,-0.025091784,156.831651888,INS_SOLUTION_GOOD*c0156d99
#BESTPOSA,USB3,0,59.5,FINESTEERING,1992,236371.000,00000000,6145,7053;SOL_COMPUTED,INS_PSRSP,37.87507270391,-122.30335161341,8.6146,-32.2000,WGS84,0.3784,0.4264,0.8295,"",0.000,0.000,8,8,0,0,0,02,0,01*fbbd1e40
#BESTVELA,USB3,0,59.5,FINESTEERING,1992,236371.000,00000000,827b,7053;SOL_COMPUTED,INS_PSRSP,0.000,0.000,4.8299,165.454191,0.0046,0.0*8a6f5ad4
#INSATTA,USB3,0,58.5,FINESTEERING,1992,236372.000,00000000,5b35,7053;1992,236371.996755000,-1.143786547,0.204717355,157.167714337,INS_SOLUTION_GOOD*61877df6
#BESTPOSA,USB3,0,58.5,FINESTEERING,1992,236372.000,00000000,6145,7053;SOL_COMPUTED,INS_PSRSP,37.87502854556,-122.30333647042,8.5442,-32.2000,WGS84,0.3807,0.4329,0.8183,"",0.000,0.000,9,9,0,0,0,02,0,01*535a69bf
#BESTVELA,USB3,0,58.5,FINESTEERING,1992,236372.000,00000000,827b,7053;SOL_COMPUTED,INS_PSRSP,0.000,0.000,5.3757,165.155877,-0.0454,0.0*01840792
#INSATTA,USB3,0,58.5,FINESTEERING,1992,236373.000,00000000,5b35,7053;1992,236372.996755000,-1.211558235,0.179845737,156.854055540,INS_SOLUTION_GOOD*a8298c19
#BESTPOSA,USB3,0,58.5,FINESTEERING,1992,236373.000,00000000,6145,7053;SOL_COMPUTED,INS_PSRSP,37.87497997859,-122.30331965699,8.4282,-32.2000,WGS84,0.3769,0.4363,0.8088,"",0.000,0.000,9,9,0,0,0,02,0,01*d1186b91
#BESTVELA,USB3,0,58.5,FINESTEERING,1992,236373.000,00000000,827b,7053;SOL_COMPUTED,INS_PSRSP,0.000,0.000,5.8601,165.033809,-0.0076,0.0*5a23a764
#INSATTA,USB3,0,58.0,FINESTEERING,1992,236374.000,00000000,5b35,7053;1992,236373.996755000,-0.755695736,0.858390367,157.250691791,INS_SOLUTION_GOOD*5d9054e1
#BESTPOSA,USB3,0,58.0,FINESTEERING,1992,236374.000,00000000,6145,7053;SOL_COMPUTED,INS_PSRSP,37.87492796461,-122.30330181805,8.3647,-32.2000,WGS84,0.3753,0.4366,0.7974,"",0.000,0.000,9,9,0,0,0,02,0,01*ab4b10e8
#BESTVELA,USB3,0,58.0,FINESTEERING,1992,236374.000,00000000,827b,7053;SOL_COMPUTED,INS_PSRSP,0.000,0.000,6.1720,165.548763,0.0002,0.0*d751d12f
#INSATTA,USB3,0,58.0,FINESTEERING,1992,236375.000,00000000,5b35,7053;1992,236374.996755000,-0.409860167,0.237158565,157.942287141,INS_SOLUTION_GOOD*17804095
#BESTPOSA,USB3,0,58.0,FINESTEERING,1992,236375.000,00000000,6145,7053;SOL_COMPUTED,INS_PSRSP,37.87487289413,-122.30328409514,8.2691,-32.2000,WGS84,0.3739,0.4354,0.7842,"",0.000,0.000,9,9,0,0,0,02,0,01*ee9e03c0
#BESTVELA,USB3,0,58.0,FINESTEERING,1992,236375.000,00000000,827b,7053;SOL_COMPUTED,INS_PSRSP,0.000,0.000,6.5386,166.383309,-0.0132,0.0*da5bd8d9
#INSATTA,USB3,0,53.5,FINESTEERING,1992,236376.000,00000000,5b35,7053;1992,236375.996755000,-0.833119142,-0.267058929,157.664489078,INS_SOLUTION_GOOD*3510b6c3
#BESTPOSA,USB3,0,53.5,FINESTEERING,1992,236376.000,00000000,6145,7053;SOL_COMPUTED,INS_PSRSP,37.87481611344,-122.30326555652,8.2034,-32.2000,WGS84,0.3731,0.4446,0.7779,"",0.000,0.000,9,9,0,0,0,02,0,01*3eced2b9
#BESTVELA,USB3,0,53.5,FINESTEERING,1992,236376.000,00000000,827b,7053;SOL_COMPUTED,INS_PSRSP,0.000,0.000,6.4068,165.275773,-0.0481,0.0*e37cb8dd
#INSATTA,USB3,0,53.5,FINESTEERING,1992,236377.000,00000000,5b35,7053;1992,236376.996755000,-0.914755389,-0.777004607,156.977428846,INS_SOLUTION_GOOD*225215fb
#BESTPOSA,USB3,0,53.5,FINESTEERING,1992,236377.000,00000000,6145,7053;SOL_COMPUTED,INS_PSRSP,37.87476391442,-122.30324701679,8.0903,-32.2000,WGS84,0.3720,0.4437,0.7687,"",0.000,0.000,9,9,0,0,0,02,0,01*bc0bcdfb
#BESTVELA,USB3,0,53.5,FINESTEERING,1992,236377.000,00000000,827b,7053;SOL_COMPUTED,INS_PSRSP,0.000,0.000,5.7301,164.008401,-0.0998,0.0*a164800c
#INSATTA,USB3,0,58.5,FINESTEERING,1992,236378.000,00000000,5b35,7053;1992,236377.996755000,-1.347083936,-1.445240667,151.157191189,INS_SOLUTION_GOOD*4ff14227
#BESTPOSA,USB3,0,58.5,FINESTEERING,1992,236378.000,00000000,6145,7053;SOL_COMPUTED,INS_PSRSP,37.87471870450,-122.30322703828,7.9461,-32.2000,WGS84,0.3696,0.4384,0.7575,"",0.000,0.000,9,9,0,0,0,02,0,01*01a521b8
#BESTVELA,USB3,0,58.5,FINESTEERING,1992,236378.000,00000000,827b,7053;SOL_COMPUTED,INS_PSRSP,0.000,0.000,5.0283,153.222578,-0.1632,0.0*2a59908e
#INSATTA,USB3,0,58.5,FINESTEERING,1992,236379.000,00000000,5b35,7053;1992,236378.996755000,-1.887651428,-1.398967890,127.873311702,INS_SOLUTION_GOOD*a64edea2
#BESTPOSA,USB3,0,58.5,FINESTEERING,1992,236379.000,00000000,6145,7053;SOL_COMPUTED,INS_PSRSP,37.87468509785,-122.30319400712,7.7701,-32.2000,WGS84,0.3652,0.4320,0.7482,"",0.000,0.000,9,9,0,0,0,02,0,01*aeae0450
#BESTVELA,USB3,0,58.5,FINESTEERING,1992,236379.000,00000000,827b,7053;SOL_COMPUTED,INS_PSRSP,0.000,0.000,4.8199,127.398871,-0.2441,0.0*02452e7f
#INSATTA,USB3,0,59.0,FINESTEERING,1992,236380.000,00000000,5b35,7053;1992,236379.996755000,-0.872209760,1.183575216,101.082315257,INS_SOLUTION_GOOD*279d0e7d
#BESTPOSA,USB3,0,59.0,FINESTEERING,1992,236380.000,00000000,6145,7053;SOL_COMPUTED,INS_PSRSP,37.87466641828,-122.30314983888,7.6565,-32.2000,WGS84,0.3627,0.4238,0.7396,"",0.000,0.000,9,9,0,0,0,02,0,01*9a85969d
#BESTVELA,USB3,0,59.0,FINESTEERING,1992,236380.000,00000000,827b,7053;SOL_COMPUTED,INS_PSRSP,0.000,0.000,4.6194,104.792345,0.0230,0.0*4e65bb9d
#INSATTA,USB3,0,58.5,FINESTEERING,1992,236381.000,00000000,5b35,7053;1992,236380.996755000,0.766118662,1.212313026,78.962080415,INS_SOLUTION_GOOD*dba97bf2
#BESTPOSA,USB3,0,58.5,FINESTEERING,1992,236381.000,00000000,6145,7053;SOL_COMPUTED,INS_PSRSP,37.87466300796,-122.30310423253,7.6116,-32.2000,WGS84,0.3724,0.4233,0.7360,"",0.000,0.000,9,9,0,0,0,02,0,01*fc81971e
#BESTVELA,USB3,0,58.5,FINESTEERING,1992,236381.000,00000000,827b,7053;SOL_COMPUTED,INS_PSRSP,0.000,0.000,4.2128,84.776341,-0.0002,0.0*c07befb3
#INSATTA,USB3,0,58.5,FINESTEERING,1992,236382.000,00000000,5b35,7053;1992,236381.996755000,0.910394318,0.724148704,66.649735617,INS_SOLUTION_GOOD*9887a1e5
#BESTPOSA,USB3,0,58.5,FINESTEERING,1992,236382.000,00000000,6145,7053;SOL_COMPUTED,INS_PSRSP,37.87466880477,-122.30305502989,7.5703,-32.2000,WGS84,0.3845,0.4310,0.7359,"",0.000,0.000,9,8,0,0,0,06,0,03*23993d88
#BESTVELA,USB3,0,58.5,FINESTEERING,1992,236382.000,00000000,827b,7053;SOL_COMPUTED,INS_PSRSP,0.000,0.000,4.6718,78.697900,-0.0329,0.0*169da8e4
#INSATTA,USB3,0,60.0,FINESTEERING,1992,236383.000,00000000,5b35,7053;1992,236382.996755000,0.437415049,0.942862885,64.092732819,INS_SOLUTION_GOOD*d4b18877
#BESTPOSA,USB3,0,60.0,FINESTEERING,1992,236383.000,00000000,6145,7053;SOL_COMPUTED,INS_PSRSP,37.87467777824,-122.30299994928,7.5741,-32.2000,WGS84,0.3987,0.4536,0.7383,"",0.000,0.000,8,7,0,0,0,06,0,03*b074ddc5
#BESTVELA,USB3,0,60.0,FINESTEERING,1992,236383.000,00000000,827b,7053;SOL_COMPUTED,INS_PSRSP,0.000,0.000,5.2254,78.236151,0.0016,0.0*01c05925
#INSATTA,USB3,0,57.5,FINESTEERING,1992,236384.000,00000000,5b35,7053;1992,236383.996755000,0.653803635,0.797330830,62.344324000,INS_SOLUTION_GOOD*ae9bd641
#BESTPOSA,USB3,0,57.5,FINESTEERING,1992,236384.000,00000000,6145,7053;SOL_COMPUTED,INS_PSRSP,37.87468851797,-122.30294120981,7.5349,-32.2000,WGS84,0.4286,0.5089,0.7484,"",0.000,0.000,8,8,0,0,0,02,0,01*fe925533
#BESTVELA,USB3,0,57.5,FINESTEERING,1992,236384.000,00000000,827b,7053;SOL_COMPUTED,INS_PSRSP,0.000,0.000,5.3418,76.051973,-0.0021,0.0*ab0af1bc
#INSATTA,USB3,0,53.5,FINESTEERING,1992,236385.000,00000000,5b35,7053;1992,236384.996755000,0.295627176,0.383323814,61.296104813,INS_SOLUTION_GOOD*b9da0a9d
#BESTPOSA,USB3,0,53.5,FINESTEERING,1992,236385.000,00000000,6145,7053;SOL_COMPUTED,INS_PSRSP,37.87470070567,-122.30288512927,7.5227,-32.2000,WGS84,0.4788,0.5929,0.7692,"",0.000,0.000,8,6,0,0,0,06,0,03*02d75676
#BESTVELA,USB3,0,53.5,FINESTEERING,1992,236385.000,00000000,827b,7053;SOL_COMPUTED,INS_PSRSP,0.000,0.000,5.0607,75.969767,-0.0035,0.0*47cf04f6
#INSATTA,USB3,0,53.5,FINESTEERING,1992,236386.000,00000000,5b35,7053;1992,236385.996755000,-0.629312966,0.729862465,62.035187653,INS_SOLUTION_GOOD*968a8d90
#BESTPOSA,USB3,0,53.5,FINESTEERING,1992,236386.000,00000000,6145,7053;SOL_COMPUTED,INS_PSRSP,37.87471184033,-122.30283453338,7.5214,-32.2000,WGS84,0.5315,0.6635,0.7881,"",0.000,0.000,7,6,0,0,0,06,0,03*2fa2af70
#BESTVELA,USB3,0,53.5,FINESTEERING,1992,236386.000,00000000,827b,7053;SOL_COMPUTED,INS_PSRSP,0.000,0.000,4.4662,76.725934,0.0030,0.0*b967485d
#INSATTA,USB3,0,54.0,FINESTEERING,1992,236387.000,00000000,5b35,7053;1992,236386.996755000,-0.335841777,0.223127099,62.509864346,INS_SOLUTION_GOOD*398646cd
#BESTPOSA,USB3,0,54.0,FINESTEERING,1992,236387.000,00000000,6145,7053;SOL_COMPUTED,INS_PSRSP,37.87472153368,-122.30279026535,7.5038,-32.2000,WGS84,0.5750,0.7098,0.8127,"",0.000,0.000,7,7,0,0,0,06,0,03*09358a0a
#BESTVELA,USB3,0,54.0,FINESTEERING,1992,236387.000,00000000,827b,7053;SOL_COMPUTED,INS_PSRSP,0.000,0.000,3.8730,77.018800,0.0458,0.0*61cc2a7c
#INSATTA,USB3,0,54.0,FINESTEERING,1992,236388.000,00000000,5b35,7053;1992,236387.996755000,-0.118740422,-2.278929917,63.240957347,INS_SOLUTION_GOOD*77dfd3ef
#BESTPOSA,USB3,0,54.0,FINESTEERING,1992,236388.000,00000000,6145,7053;SOL_COMPUTED,INS_PSRSP,37.87472963939,-122.30274920394,7.4197,-32.2000,WGS84,0.5969,0.6945,0.8344,"",0.000,0.000,8,7,0,0,0,06,0,03*00727807
#BESTVELA,USB3,0,54.0,FINESTEERING,1992,236388.000,00000000,827b,7053;SOL_COMPUTED,INS_PSRSP,0.000,0.000,3.7879,77.705572,-0.0624,0.0*7f2186f1
#INSATTA,USB3,0,54.0,FINESTEERING,1992,236389.000,00000000,5b35,7053;1992,236388.996755000,-0.052283741,0.245495505,64.067374247,INS_SOLUTION_GOOD*ca6b6cd1
#BESTPOSA,USB3,0,54.0,FINESTEERING,1992,236389.000,00000000,6145,7053;SOL_COMPUTED,INS_PSRSP,37.87473758564,-122.30270693441,7.4122,-32.2000,WGS84,0.5884,0.6405,0.8465,"",0.000,0.000,7,7,0,0,0,06,0,03*4fbdfe8b
#BESTVELA,USB3,0,54.0,FINESTEERING,1992,236389.000,00000000,827b,7053;SOL_COMPUTED,INS_PSRSP,0.000,0.000,3.5055,79.489916,-0.0607,0.0*0dd161c6
#INSATTA,USB3,0,54.0,FINESTEERING,1992,236390.000,00000000,5b35,7053;1992,236389.996755000,-0.053833124,0.314258745,65.812902353,INS_SOLUTION_GOOD*ad9e6e81
#BESTPOSA,USB3,0,54.0,FINESTEERING,1992,236390.000,00000000,6145,7053;SOL_COMPUTED,INS_PSRSP,37.87474265704,-122.30267465155,7.3563,-32.2000,WGS84,0.5461,0.5615,0.8502,"",0.000,0.000,8,7,0,0,0,06,0,03*b90f9a7c
#BESTVELA,USB3,0,54.0,FINESTEERING,1992,236390.000,00000000,827b,7053;SOL_COMPUTED,INS_PSRSP,0.000,0.000,2.5724,80.406184,-0.0290,0.0*34afb773
#INSATTA,USB3,0,55.0,FINESTEERING,1992,236391.000,00000000,5b35,7053;1992,236390.996755000,-0.255674456,0.463606992,65.672516466,INS_SOLUTION_GOOD*97ab7414
#BESTPOSA,USB3,0,55.0,FINESTEERING,1992,236391.000,00000000,6145,7053;SOL_COMPUTED,INS_PSRSP,37.87474651251,-122.30265453832,7.4028,-32.2000,WGS84,0.5224,0.5089,0.8520,"",0.000,0.000,7,7,0,0,0,06,0,03*7fdd0ea1
#BESTVELA,USB3,0,55.0,FINESTEERING,1992,236391.000,00000000,827b,7053;SOL_COMPUTED,INS_PSRSP,0.000,0.000,1.2147,75.769977,-0.0022,0.0*50eb9eb5
#INSATTA,USB3,0,55.0,FINESTEERING,1992,236392.000,00000000,5b35,7053;1992,236391.996755000,-0.795054745,0.586845483,62.888857137,INS_SOLUTION_GOOD*6d7ef86d
#BESTPOSA,USB3,0,55.0,FINESTEERING,1992,236392.000,00000000,6145,7053;SOL_COMPUTED,INS_PSRSP,37.87474908766,-122.30264403288,7.4444,-32.2000,WGS84,0.4956,0.4823,0.8485,"",0.000,0.000,7,7,0,0,0,06,0,03*d637cbc1
#BESTVELA,USB3,0,55.0,FINESTEERING,1992,236392.000,00000000,827b,7053;SOL_COMPUTED,INS_PSRSP,0.000,0.000,0.9122,68.830214,-0.0127,0.0*2637a49b
#INSATTA,USB3,0,55.0,FINESTEERING,1992,236393.000,00000000,5b35,7053;1992,236392.996755000,-0.876312231,1.268706541,58.792446456,INS_SOLUTION_GOOD*9b742656
#BESTPOSA,USB3,0,55.0,FINESTEERING,1992,236393.000,00000000,6145,7053;SOL_COMPUTED,INS_PSRSP,37.87475212035,-122.30263407901,7.4358,-32.2000,WGS84,0.4701,0.4521,0.8422,"",0.000,0.000,8,7,0,0,0,06,0,03*3032d534
#BESTVELA,USB3,0,55.0,FINESTEERING,1992,236393.000,00000000,827b,7053;SOL_COMPUTED,INS_PSRSP,0.000,0.000,1.3294,66.373279,0.0066,0.0*9c4678c1
#INSATTA,USB3,0,52.0,FINESTEERING,1992,236394.000,00000000,5b35,7053;1992,236393.996755000,-1.003781141,0.546046737,52.465469130,INS_SOLUTION_GOOD*d57bd07a
#BESTPOSA,USB3,0,52.0,FINESTEERING,1992,236394.000,00000000,6145,7053;SOL_COMPUTED,INS_PSRSP,37.87475741980,-122.30261992625,7.4421,-32.2000,WGS84,0.4617,0.4319,0.8347,"",0.000,0.000,10,7,0,0,0,06,0,03*284e9cc6
#BESTVELA,USB3,0,52.0,FINESTEERING,1992,236394.000,00000000,827b,7053;SOL_COMPUTED,INS_PSRSP,0.000,0.000,1.2161,57.959467,-0.0249,0.0*9607add9
#INSATTA,USB3,0,52.0,FINESTEERING,1992,236395.000,00000000,5b35,7053;1992,236394.996755000,-1.545082144,0.573142259,47.970014615,INS_SOLUTION_GOOD*da83369f
#BESTPOSA,USB3,0,52.0,FINESTEERING,1992,236395.000,00000000,6145,7053;SOL_COMPUTED,INS_PSRSP,37.87476084526,-122.30261368234,7.5409,-32.2000,WGS84,0.4494,0.4279,0.8252,"",0.000,0.000,9,7,0,0,0,06,0,03*a818dc0a
#BESTVELA,USB3,0,52.0,FINESTEERING,1992,236395.000,00000000,827b,7053;SOL_COMPUTED,INS_PSRSP,0.000,0.000,0.2352,61.905293,-0.0292,0.0*adc2a6ba
#INSATTA,USB3,0,60.0,FINESTEERING,1992,236396.000,00000000,5b35,7053;1992,236395.996755000,-1.537791658,0.626207100,46.502306090,INS_SOLUTION_GOOD*1cb66447
#BESTPOSA,USB3,0,60.0,FINESTEERING,1992,236396.000,00000000,6145,7053;SOL_COMPUTED,INS_PSRSP,37.87476155035,-122.30261149433,7.5061,-32.2000,WGS84,0.4386,0.4092,0.8104,"",0.000,0.000,9,7,0,0,0,06,0,03*9a2c7016
#BESTVELA,USB3,0,60.0,FINESTEERING,1992,236396.000,00000000,827b,7053;SOL_COMPUTED,INS_PSRSP,0.000,0.000,0.3613,58.854853,-0.0134,0.0*feab8549
#INSATTA,USB3,0,57.0,FINESTEERING,1992,236397.000,00000000,5b35,7053;1992,236396.996755000,-1.491845785,0.550808812,45.484351608,INS_SOLUTION_GOOD*cc129833
#BESTPOSA,USB3,0,57.0,FINESTEERING,1992,236397.000,00000000,6145,7053;SOL_COMPUTED,INS_PSRSP,37.87476309085,-122.30260920598,7.4925,-32.2000,WGS84,0.4325,0.3960,0.7983,"",0.000,0.000,9,7,0,0,0,06,0,03*24e5bbae
#BESTVELA,USB3,0,57.0,FINESTEERING,1992,236397.000,00000000,827b,7053;SOL_COMPUTED,INS_PSRSP,0.000,0.000,0.2536,64.279407,-0.0028,0.0*e7db4c74
#INSATTA,USB3,0,57.0,FINESTEERING,1992,236398.000,00000000,5b35,7053;1992,236397.996755000,-1.228067396,0.314074511,44.671155878,INS_SOLUTION_GOOD*75b0d8dc
#BESTPOSA,USB3,0,57.0,FINESTEERING,1992,236398.000,00000000,6145,7053;SOL_COMPUTED,INS_PSRSP,37.87476445699,-122.30260635024,7.5278,-32.2000,WGS84,0.4316,0.4028,0.7990,"",0.000,0.000,8,7,0,0,0,06,0,03*f5739bcb
#BESTVELA,USB3,0,57.0,FINESTEERING,1992,236398.000,00000000,827b,7053;SOL_COMPUTED,INS_PSRSP,0.000,0.000,0.3046,61.156043,-0.0104,0.0*26868eb4
#INSATTA,USB3,0,57.0,FINESTEERING,1992,236399.000,00000000,5b35,7053;1992,236398.996755000,-1.226488833,0.473969610,43.592648491,INS_SOLUTION_GOOD*d506bce9
#BESTPOSA,USB3,0,57.0,FINESTEERING,1992,236399.000,00000000,6145,7053;SOL_COMPUTED,INS_PSRSP,37.87476600000,-122.30260427852,7.5440,-32.2000,WGS84,0.4224,0.3889,0.7820,"",0.000,0.000,9,7,0,0,0,06,0,03*9f8346b1
#BESTVELA,USB3,0,57.0,FINESTEERING,1992,236399.000,00000000,827b,7053;SOL_COMPUTED,INS_PSRSP,0.000,0.000,0.4118,56.042041,-0.0027,0.0*e38797d0
#INSATTA,USB3,0,57.0,FINESTEERING,1992,236400.000,00000000,5b35,7053;1992,236399.996755000,-1.373532382,0.490913734,42.269869514,INS_SOLUTION_GOOD*a6a80b3d
#BESTPOSA,USB3,0,57.0,FINESTEERING,1992,236400.000,00000000,6145,7053;SOL_COMPUTED,INS_PSRSP,37.87476889601,-122.30259997915,7.6016,-32.2000,WGS84,0.4258,0.3877,0.7806,"",0.000,0.000,8,7,0,0,0,06,0,03*e222661d
#BESTVELA,USB3,0,57.0,FINESTEERING,1992,236400.000,00000000,827b,7053;SOL_COMPUTED,INS_PSRSP,0.000,0.000,0.7119,58.615664,0.0003,0.0*ebe73388
#INSATTA,USB3,0,60.0,FINESTEERING,1992,236401.000,00000000,5b35,7053;1992,236400.996755000,-0.687569165,0.509381271,41.814075841,INS_SOLUTION_GOOD*8882cae0
#BESTPOSA,USB3,0,60.0,FINESTEERING,1992,236401.000,00000000,6145,7053;SOL_COMPUTED,INS_PSRSP,37.87477243973,-122.30259324451,7.5559,-32.2000,WGS84,0.4178,0.3826,0.7710,"",0.000,0.000,9,7,0,0,0,06,0,03*83d656b4
#BESTVELA,USB3,0,60.0,FINESTEERING,1992,236401.000,00000000,827b,7053;SOL_COMPUTED,INS_PSRSP,0.000,0.000,0.6827,58.601976,0.0142,0.0*2a190040
#INSATTA,USB3,0,57.0,FINESTEERING,1992,236402.000,00000000,5b35,7053;1992,236401.996755000,-1.047929563,0.200061051,41.384582589,INS_SOLUTION_GOOD*83fc9f7f
#BESTPOSA,USB3,0,57.0,FINESTEERING,1992,236402.000,00000000,6145,7053;SOL_COMPUTED,INS_PSRSP,37.87477737887,-122.30258434085,7.6005,-32.2000,WGS84,0.4090,0.3728,0.7570,"",0.000,0.000,9,7,0,0,0,06,0,03*53fb1243
#BESTVELA,USB3,0,57.0,FINESTEERING,1992,236402.000,00000000,827b,7053;SOL_COMPUTED,INS_PSRSP,0.000,0.000,1.4685,56.178055,-0.0127,0.0*4b2b0154
#INSATTA,USB3,0,55.0,FINESTEERING,1992,236403.000,00000000,5b35,7053;1992,236402.996755000,-0.870089175,0.967692797,41.375377664,INS_SOLUTION_GOOD*4b43f615
#BESTPOSA,USB3,0,55.0,FINESTEERING,1992,236403.000,00000000,6145,7053;SOL_COMPUTED,INS_PSRSP,37.87478883697,-122.30256491905,7.5776,-32.2000,WGS84,0.4043,0.3651,0.7492,"",0.000,0.000,9,7,0,0,0,06,0,03*b727185b
#BESTVELA,USB3,0,55.0,FINESTEERING,1992,236403.000,00000000,827b,7053;SOL_COMPUTED,INS_PSRSP,0.000,0.000,2.7418,56.502603,0.0778,0.0*910d5453
#INSATTA,USB3,0,55.0,FINESTEERING,1992,236404.000,00000000,5b35,7053;1992,236403.996755000,-1.612223104,0.392088983,49.048446442,INS_SOLUTION_GOOD*c500e6ad
#BESTPOSA,USB3,0,55.0,FINESTEERING,1992,236404.000,00000000,6145,7053;SOL_COMPUTED,INS_PSRSP,37.87480307737,-122.30253196601,7.6119,-32.2000,WGS84,0.3977,0.3600,0.7415,"",0.000,0.000,8,7,0,0,0,06,0,03*3c1ba59e
#BESTVELA,USB3,0,55.0,FINESTEERING,1992,236404.000,00000000,827b,7053;SOL_COMPUTED,INS_PSRSP,0.000,0.000,3.7760,70.014266,-0.0287,0.0*3dbf4652
#INSATTA,USB3,0,54.5,FINESTEERING,1992,236405.000,00000000,5b35,7053;1992,236404.996755000,-1.098645793,1.652526465,64.616342896,INS_SOLUTION_GOOD*871ce88e
#BESTPOSA,USB3,0,54.5,FINESTEERING,1992,236405.000,00000000,6145,7053;SOL_COMPUTED,INS_PSRSP,37.87481278518,-122.30248620267,7.6261,-32.2000,WGS84,0.3916,0.3540,0.7320,"",0.000,0.000,8,7,0,0,0,06,0,03*ba5e2b17
#BESTVELA,USB3,0,54.5,FINESTEERING,1992,236405.000,00000000,827b,7053;SOL_COMPUTED,INS_PSRSP,0.000,0.000,4.6060,81.488729,0.0638,0.0*b987b678
#INSATTA,USB3,0,54.5,FINESTEERING,1992,236406.000,00000000,5b35,7053;1992,236405.996755000,-0.345947518,0.224389797,73.209561888,INS_SOLUTION_GOOD*dde15b04
#BESTPOSA,USB3,0,54.5,FINESTEERING,1992,236406.000,00000000,6145,7053;SOL_COMPUTED,INS_PSRSP,37.87481855638,-122.30243553598,7.5864,-32.2000,WGS84,0.3899,0.3490,0.7287,"",0.000,0.000,8,7,0,0,0,06,0,03*18242b6a
#BESTVELA,USB3,0,54.5,FINESTEERING,1992,236406.000,00000000,827b,7053;SOL_COMPUTED,INS_PSRSP,0.000,0.000,4.4451,89.415901,-0.0159,0.0*ab0d20a0
#INSATTA,USB3,0,57.5,FINESTEERING,1992,236407.000,00000000,5b35,7053;1992,236406.996755000,-0.492990069,-0.664017704,80.904749277,INS_SOLUTION_GOOD*67f2c525
#BESTPOSA,USB3,0,57.5,FINESTEERING,1992,236407.000,00000000,6145,7053;SOL_COMPUTED,INS_PSRSP,37.87481691969,-122.30238757752,7.4998,-32.2000,WGS84,0.3857,0.3443,0.7232,"",0.000,0.000,8,7,0,0,0,06,0,03*f756b812
#BESTVELA,USB3,0,57.5,FINESTEERING,1992,236407.000,00000000,827b,7053;SOL_COMPUTED,INS_PSRSP,0.000,0.000,3.7946,96.478889,-0.0385,0.0*39640fb1
#INSATTA,USB3,0,59.0,FINESTEERING,1992,236408.000,00000000,5b35,7053;1992,236407.996755000,-0.360627314,-1.335842786,85.203425288,INS_SOLUTION_GOOD*61722c50
#BESTPOSA,USB3,0,59.0,FINESTEERING,1992,236408.000,00000000,6145,7053;SOL_COMPUTED,INS_PSRSP,37.87481265575,-122.30234953278,7.4809,-32.2000,WGS84,0.3769,0.3383,0.7156,"",0.000,0.000,9,7,0,0,0,06,0,03*74e3b954
#BESTVELA,USB3,0,59.0,FINESTEERING,1992,236408.000,00000000,827b,7053;SOL_COMPUTED,INS_PSRSP,0.000,0.000,2.7325,97.971968,-0.0544,0.0*067379b7
#INSATTA,USB3,0,59.5,FINESTEERING,1992,236409.000,00000000,5b35,7053;1992,236408.996755000,0.074998476,-0.393207723,85.532849933,INS_SOLUTION_GOOD*454396dc
#BESTPOSA,USB3,0,59.5,FINESTEERING,1992,236409.000,00000000,6145,7053;SOL_COMPUTED,INS_PSRSP,37.87480953953,-122.30232860266,7.4356,-32.2000,WGS84,0.3688,0.3326,0.7135,"",0.000,0.000,8,7,0,0,0,06,0,03*e12ea08c
#BESTVELA,USB3,0,59.5,FINESTEERING,1992,236409.000,00000000,827b,7053;SOL_COMPUTED,INS_PSRSP,0.000,0.000,1.1376,97.547276,0.0114,0.0*4dde245f
#INSATTA,USB3,0,60.5,FINESTEERING,1992,236410.000,00000000,5b35,7053;1992,236409.996755000,-0.449473383,1.362167812,83.592930203,INS_SOLUTION_GOOD*bb504432
#BESTPOSA,USB3,0,60.5,FINESTEERING,1992,236410.000,00000000,6145,7053;SOL_COMPUTED,INS_PSRSP,37.87480810642,-122.30231649973,7.4846,-32.2000,WGS84,0.3630,0.3281,0.7071,"",0.000,0.000,8,7,0,0,0,06,0,03*6b92c6af
#BESTVELA,USB3,0,60.5,FINESTEERING,1992,236410.000,00000000,827b,7053;SOL_COMPUTED,INS_PSRSP,0.000,0.000,1.3712,92.419045,0.0156,0.0*89da5f3b
#INSATTA,USB3,0,56.5,FINESTEERING,1992,236411.000,00000000,5b35,7053;1992,236410.996755000,0.084261411,1.606322381,79.866942110,INS_SOLUTION_GOOD*42c51109
#BESTPOSA,USB3,0,56.5,FINESTEERING,1992,236411.000,00000000,6145,7053;SOL_COMPUTED,INS_PSRSP,37.87480745098,-122.30229808367,7.4450,-32.2000,WGS84,0.3550,0.3243,0.6998,"",0.000,0.000,8,7,0,0,0,06,0,03*4d5b13ff
#BESTVELA,USB3,0,56.5,FINESTEERING,1992,236411.000,00000000,827b,7053;SOL_COMPUTED,INS_PSRSP,0.000,0.000,1.6103,92.120252,0.0216,0.0*15214931
#INSATTA,USB3,0,50.0,FINESTEERING,1992,236412.000,00000000,5b35,7053;1992,236411.996755000,0.935131354,1.385288040,77.473469661,INS_SOLUTION_GOOD*b52498f9
#BESTPOSA,USB3,0,50.0,FINESTEERING,1992,236412.000,00000000,6145,7053;SOL_COMPUTED,INS_PSRSP,37.87480605173,-122.30228039004,7.4625,-32.2000,WGS84,0.3502,0.3184,0.6970,"",0.000,0.000,8,7,0,0,0,06,0,03*6230d83a
#BESTVELA,USB3,0,50.0,FINESTEERING,1992,236412.000,00000000,827b,7053;SOL_COMPUTED,INS_PSRSP,0.000,0.000,1.5828,89.522690,0.0353,0.0*9471e9e4
#INSATTA,USB3,0,50.0,FINESTEERING,1992,236413.000,00000000,5b35,7053;1992,236412.996755000,1.332004578,1.964466619,70.397858670,INS_SOLUTION_GOOD*bb989428
#BESTPOSA,USB3,0,50.0,FINESTEERING,1992,236413.000,00000000,6145,7053;SOL_COMPUTED,INS_PSRSP,37.87480813210,-122.30225289428,7.4401,-32.2000,WGS84,0.3485,0.3141,0.6914,"",0.000,0.000,9,7,0,0,0,06,0,03*dbec4d6f
#BESTVELA,USB3,0,50.0,FINESTEERING,1992,236413.000,00000000,827b,7053;SOL_COMPUTED,INS_PSRSP,0.000,0.000,3.2344,80.734545,0.0067,0.0*cf00f969
#INSATTA,USB3,0,55.0,FINESTEERING,1992,236414.000,00000000,5b35,7053;1992,236413.996755000,2.259100096,1.880845728,61.341403642,INS_SOLUTION_GOOD*b83472b5
#BESTPOSA,USB3,0,55.0,FINESTEERING,1992,236414.000,00000000,6145,7053;SOL_COMPUTED,INS_PSRSP,37.87481610291,-122.30220999856,7.4968,-32.2000,WGS84,0.3431,0.3118,0.6855,"",0.000,0.000,8,7,0,0,0,06,0,03*55c7e528
#BESTVELA,USB3,0,55.0,FINESTEERING,1992,236414.000,00000000,827b,7053;SOL_COMPUTED,INS_PSRSP,0.000,0.000,4.4381,73.023622,0.0460,0.0*b35800b9
#INSATTA,USB3,0,58.5,FINESTEERING,1992,236415.000,00000000,5b35,7053;1992,236414.996755000,1.537316279,2.152621977,56.979394571,INS_SOLUTION_GOOD*5db8ed78
#BESTPOSA,USB3,0,58.5,FINESTEERING,1992,236415.000,00000000,6145,7053;SOL_COMPUTED,INS_PSRSP,37.87482893406,-122.30215675700,7.5438,-32.2000,WGS84,0.3401,0.3071,0.6821,"",0.000,0.000,9,8,0,0,0,06,0,03*03153b72
#BESTVELA,USB3,0,58.5,FINESTEERING,1992,236415.000,00000000,827b,7053;SOL_COMPUTED,INS_PSRSP,0.000,0.000,5.2645,71.296905,0.0789,0.0*cf4a14c1
#INSATTA,USB3,0,56.5,FINESTEERING,1992,236416.000,00000000,5b35,7053;1992,236415.996755000,0.375519534,2.192048342,56.752772579,INS_SOLUTION_GOOD*d1da253f
#BESTPOSA,USB3,0,56.5,FINESTEERING,1992,236416.000,00000000,6145,7053;SOL_COMPUTED,INS_PSRSP,37.87484532059,-122.30209629449,7.6343,-32.2000,WGS84,0.3412,0.3046,0.6785,"",0.000,0.000,8,8,0,0,0,06,0,03*36448564
#BESTVELA,USB3,0,56.5,FINESTEERING,1992,236416.000,00000000,827b,7053;SOL_COMPUTED,INS_PSRSP,0.000,0.000,5.8617,71.963791,0.1867,0.0*8aa1cd18
#INSATTA,USB3,0,56.5,FINESTEERING,1992,236417.000,00000000,5b35,7053;1992,236416.996755000,0.505875048,1.555128208,58.590994449,INS_SOLUTION_GOOD*4ff86836
#BESTPOSA,USB3,0,56.5,FINESTEERING,1992,236417.000,00000000,6145,7053;SOL_COMPUTED,INS_PSRSP,37.87486192533,-122.30203326433,7.6203,-32.2000,WGS84,0.3366,0.3037,0.6730,"",0.000,0.000,8,8,0,0,0,06,0,03*71d72ba0
#BESTVELA,USB3,0,56.5,FINESTEERING,1992,236417.000,00000000,827b,7053;SOL_COMPUTED,INS_PSRSP,0.000,0.000,5.8714,73.897742,0.0966,0.0*0f8a66f4
#INSATTA,USB3,0,57.0,FINESTEERING,1992,236418.000,00000000,5b35,7053;1992,236417.996755000,-0.519675497,1.638707232,60.158027126,INS_SOLUTION_GOOD*558c43a3
#BESTPOSA,USB3,0,57.0,FINESTEERING,1992,236418.000,00000000,6145,7053;SOL_COMPUTED,INS_PSRSP,37.87487831176,-122.30196276121,7.8166,-32.2000,WGS84,0.3315,0.2988,0.6666,"",0.000,0.000,8,7,0,0,0,06,0,03*ba24aa65
#BESTVELA,USB3,0,57.0,FINESTEERING,1992,236418.000,00000000,827b,7053;SOL_COMPUTED,INS_PSRSP,0.000,0.000,7.0249,74.766361,0.0930,0.0*05a1b8c3
#INSATTA,USB3,0,57.0,FINESTEERING,1992,236419.000,00000000,5b35,7053;1992,236418.996755000,-1.021925346,0.555151403,61.150208219,INS_SOLUTION_GOOD*8dc5aa9b
#BESTPOSA,USB3,0,57.0,FINESTEERING,1992,236419.000,00000000,6145,7053;SOL_COMPUTED,INS_PSRSP,37.87489577366,-122.30188368627,7.8556,-32.2000,WGS84,0.3285,0.2949,0.6611,"",0.000,0.000,8,7,0,0,0,06,0,03*e77671ef
#BESTVELA,USB3,0,57.0,FINESTEERING,1992,236419.000,00000000,827b,7053;SOL_COMPUTED,INS_PSRSP,0.000,0.000,7.0210,76.044433,0.0877,0.0*fd077186
#INSATTA,USB3,0,48.5,FINESTEERING,1992,236420.000,00000000,5b35,7053;1992,236419.996755000,-0.141035703,0.574047236,63.487652542,INS_SOLUTION_GOOD*da7519d2
#BESTPOSA,USB3,0,48.5,FINESTEERING,1992,236420.000,00000000,6145,7053;SOL_COMPUTED,INS_PSRSP,37.87490913100,-122.30181083235,7.8873,-32.2000,WGS84,0.3256,0.2946,0.6586,"",0.000,0.000,8,7,0,0,0,06,0,03*8ef8625a
#BESTVELA,USB3,0,48.5,FINESTEERING,1992,236420.000,00000000,827b,7053;SOL_COMPUTED,INS_PSRSP,0.000,0.000,5.9543,78.811254,0.0298,0.0*594af072
#INSATTA,USB3,0,48.5,FINESTEERING,1992,236421.000,00000000,5b35,7053;1992,236420.996755000,0.903412027,0.551059977,59.771253623,INS_SOLUTION_GOOD*3c304265
#BESTPOSA,USB3,0,48.5,FINESTEERING,1992,236421.000,00000000,6145,7053;SOL_COMPUTED,INS_PSRSP,37.87492045851,-122.30175240443,7.9090,-32.2000,WGS84,0.3220,0.2906,0.6542,"",0.000,0.000,7,7,0,0,0,06,0,03*74060a57
#BESTVELA,USB3,0,48.5,FINESTEERING,1992,236421.000,00000000,827b,7053;SOL_COMPUTED,INS_PSRSP,0.000,0.000,4.6627,71.495594,0.0433,0.0*69cdcbdc
#INSATTA,USB3,0,54.5,FINESTEERING,1992,236422.000,00000000,5b35,7053;1992,236421.996755000,0.330497824,0.783661825,39.309337508,INS_SOLUTION_GOOD*c88acc27
#BESTPOSA,USB3,0,54.5,FINESTEERING,1992,236422.000,00000000,6145,7053;SOL_COMPUTED,INS_PSRSP,37.87493912097,-122.30171314796,7.9623,-32.2000,WGS84,0.3203,0.2878,0.6507,"",0.000,0.000,7,7,0,0,0,06,0,03*644dc0a6
#BESTVELA,USB3,0,54.5,FINESTEERING,1992,236422.000,00000000,827b,7053;SOL_COMPUTED,INS_PSRSP,0.000,0.000,3.5620,41.963826,0.0125,0.0*5bd05023
#INSATTA,USB3,0,55.0,FINESTEERING,1992,236423.000,00000000,5b35,7053;1992,236422.996755000,-1.441034204,-1.233337177,8.290872574,INS_SOLUTION_GOOD*dabae1ae
#BESTPOSA,USB3,0,55.0,FINESTEERING,1992,236423.000,00000000,6145,7053;SOL_COMPUTED,INS_PSRSP,37.87496330439,-122.30169909671,7.9086,-32.2000,WGS84,0.3155,0.2862,0.6474,"",0.000,0.000,8,7,0,0,0,06,0,03*4026a6d0
#BESTVELA,USB3,0,55.0,FINESTEERING,1992,236423.000,00000000,827b,7053;SOL_COMPUTED,INS_PSRSP,0.000,0.000,2.6991,1.822813,-0.1295,0.0*80117a81
#INSATTA,USB3,0,55.0,FINESTEERING,1992,236424.000,00000000,5b35,7053;1992,236423.996755000,-0.497390728,-4.664483260,339.592716817,INS_SOLUTION_GOOD*230c929f
#BESTPOSA,USB3,0,55.0,FINESTEERING,1992,236424.000,00000000,6145,7053;SOL_COMPUTED,INS_PSRSP,37.87498144615,-122.30170420248,7.6250,-32.2000,WGS84,0.3106,0.2825,0.6428,"",0.000,0.000,8,7,0,0,0,06,0,03*42e0db20
#BESTVELA,USB3,0,55.0,FINESTEERING,1992,236424.000,00000000,827b,7053;SOL_COMPUTED,INS_PSRSP,0.000,0.000,1.8082,327.418304,-0.2215,0.0*ac450e35
#INSATTA,USB3,0,59.5,FINESTEERING,1992,236425.000,00000000,5b35,7053;1992,236424.996755000,-1.019105979,1.251452705,321.778523879,INS_SOLUTION_GOOD*63744028
#BESTPOSA,USB3,0,59.5,FINESTEERING,1992,236425.000,00000000,6145,7053;SOL_COMPUTED,INS_PSRSP,37.87499075715,-122.30171464859,7.6996,-32.2000,WGS84,0.3091,0.2803,0.6400,"",0.000,0.000,8,7,0,0,0,06,0,03*ffe1bc3d
#BESTVELA,USB3,0,59.5,FINESTEERING,1992,236425.000,00000000,827b,7053;SOL_COMPUTED,INS_PSRSP,0.000,0.000,1.0113,305.802408,-0.0046,0.0*30016d15
#INSATTA,USB3,0,55.0,FINESTEERING,1992,236426.000,00000000,5b35,7053;1992,236425.996755000,-1.189714423,2.899811593,315.517396603,INS_SOLUTION_GOOD*9366dd7e
#BESTPOSA,USB3,0,55.0,FINESTEERING,1992,236426.000,00000000,6145,7053;SOL_COMPUTED,INS_PSRSP,37.87499335066,-122.30171912706,7.7395,-32.2000,WGS84,0.3090,0.2813,0.6395,"",0.000,0.000,7,7,0,0,0,06,0,03*4e791ab9
#BESTVELA,USB3,0,55.0,FINESTEERING,1992,236426.000,00000000,827b,7053;SOL_COMPUTED,INS_PSRSP,0.000,0.000,0.2544,279.345674,0.0003,0.0*09f399a7
#INSATTA,USB3,0,55.0,FINESTEERING,1992,236427.000,00000000,5b35,7053;1992,236426.996755000,-1.135413006,2.988969927,314.904458043,INS_SOLUTION_GOOD*b287ee59
#BESTPOSA,USB3,0,55.0,FINESTEERING,1992,236427.000,00000000,6145,7053;SOL_COMPUTED,INS_PSRSP,37.87499373961,-122.30171745374,7.9305,-32.2000,WGS84,0.3057,0.2842,0.6392,"",0.000,0.000,7,6,0,0,0,06,0,03*9340190b
#BESTVELA,USB3,0,55.0,FINESTEERING,1992,236427.000,00000000,827b,7053;SOL_COMPUTED,INS_PSRSP,0.000,0.000,0.5170,153.986823,0.0296,0.0*b7e0a1a6
#INSATTA,USB3,0,55.0,FINESTEERING,1992,236428.000,00000000,5b35,7053;1992,236427.996755000,-0.682231989,1.208192835,311.829646527,INS_SOLUTION_GOOD*9b22711f
#BESTPOSA,USB3,0,55.0,FINESTEERING,1992,236428.000,00000000,6145,7053;SOL_COMPUTED,INS_PSRSP,37.87498784287,-122.30171309817,7.8616,-32.2000,WGS84,0.3055,0.2878,0.6395,"",0.000,0.000,8,6,0,0,0,06,0,03*1f3181a5
#BESTVELA,USB3,0,55.0,FINESTEERING,1992,236428.000,00000000,827b,7053;SOL_COMPUTED,INS_PSRSP,0.000,0.000,1.1294,164.451912,0.0101,0.0*1e17790c
#INSATTA,USB3,0,52.5,FINESTEERING,1992,236429.000,00000000,5b35,7053;1992,236428.996755000,1.278274544,-3.502716001,295.094123772,INS_SOLUTION_GOOD*2df35638
#BESTPOSA,USB3,0,52.5,FINESTEERING,1992,236429.000,00000000,6145,7053;SOL_COMPUTED,INS_PSRSP,37.87497640191,-122.30170733038,7.6909,-32.2000,WGS84,0.3099,0.2884,0.6417,"",0.000,0.000,8,6,0,0,0,06,0,03*0d5aaf03
#BESTVELA,USB3,0,52.5,FINESTEERING,1992,236429.000,00000000,827b,7053;SOL_COMPUTED,INS_PSRSP,0.000,0.000,1.6074,155.419455,-0.0038,0.0*e021d6d4
#INSATTA,USB3,0,52.5,FINESTEERING,1992,236430.000,00000000,5b35,7053;1992,236429.996755000,1.948006237,-1.845740348,275.342452592,INS_SOLUTION_GOOD*8d76b6c5
#BESTPOSA,USB3,0,52.5,FINESTEERING,1992,236430.000,00000000,6145,7053;SOL_COMPUTED,INS_PSRSP,37.87496455957,-122.30169736664,7.7448,-32.2000,WGS84,0.3114,0.2858,0.6373,"",0.000,0.000,7,6,0,0,0,06,0,03*55cf4782
#BESTVELA,USB3,0,52.5,FINESTEERING,1992,236430.000,00000000,827b,7053;SOL_COMPUTED,INS_PSRSP,0.000,0.000,1.6126,139.529526,0.1104,0.0*0ab0251a
#INSATTA,USB3,0,60.0,FINESTEERING,1992,236431.000,00000000,5b35,7053;1992,236430.996755000,0.593877625,-0.894643539,261.315578122,INS_SOLUTION_GOOD*b98c5fee
#BESTPOSA,USB3,0,60.0,FINESTEERING,1992,236431.000,00000000,6145,7053;SOL_COMPUTED,INS_PSRSP,37.87495838634,-122.30168529206,8.0369,-32.2000,WGS84,0.3121,0.2848,0.6343,"",0.000,0.000,8,6,0,0,0,06,0,03*66460259
#BESTVELA,USB3,0,60.0,FINESTEERING,1992,236431.000,00000000,827b,7053;SOL_COMPUTED,INS_PSRSP,0.000,0.000,0.7694,123.488696,0.0495,0.0*59dd3792
#INSATTA,USB3,0,55.5,FINESTEERING,1992,236432.000,00000000,5b35,7053;1992,236431.996755000,0.657146754,-0.659896759,258.123697292,INS_SOLUTION_GOOD*c08b1d6b
#BESTPOSA,USB3,0,55.5,FINESTEERING,1992,236432.000,00000000,6145,7053;SOL_COMPUTED,INS_PSRSP,37.87495695272,-122.30168010138,8.0579,-32.2000,WGS84,0.3183,0.2882,0.6354,"",0.000,0.000,8,6,0,0,0,06,0,03*183a14a0
#BESTVELA,USB3,0,55.5,FINESTEERING,1992,236432.000,00000000,827b,7053;SOL_COMPUTED,INS_PSRSP,0.000,0.000,0.1059,193.341365,0.0284,0.0*c31100fb
#INSATTA,USB3,0,55.5,FINESTEERING,1992,236433.000,00000000,5b35,7053;1992,236432.996755000,1.260191000,-0.431157608,257.121923519,INS_SOLUTION_GOOD*edef3ef9
#BESTPOSA,USB3,0,55.5,FINESTEERING,1992,236433.000,00000000,6145,7053;SOL_COMPUTED,INS_PSRSP,37.87495748277,-122.30168823827,7.8916,-32.2000,WGS84,0.3242,0.2877,0.6319,"",0.000,0.000,9,6,0,0,0,06,0,03*13b764fa
#BESTVELA,USB3,0,55.5,FINESTEERING,1992,236433.000,00000000,827b,7053;SOL_COMPUTED,INS_PSRSP,0.000,0.000,1.3271,261.361863,-0.0139,0.0*1670f68e
#INSATTA,USB3,0,58.0,FINESTEERING,1992,236434.000,00000000,5b35,7053;1992,236433.996755000,2.179407508,0.338257853,247.947422151,INS_SOLUTION_GOOD*627082d5
